{
  "study-type": [
    "Full time (12 months)",
    "Part time (18-24 months)"
  ],
  "qualification": [
    "PGCE with QTS (Postgraduate certificate in education with qualified teacher status)",
    "QTS (Qualified teacher status)"
  ],
  "selectedSubjects": [

  ],
  "subjects": [
    "Arabic",
    "Art / art & design",
    "Biology",
    "Business education",
    "Chemistry",
    "Chinese",
    "Citizenship",
    "Classics",
    "Communication and media studies",
    "Computer studies",
    "Dance and performance",
    "Design and technology",
    "Design and technology (food)",
    "Design and technology (product design)",
    "Design and technology (systems and control)",
    "Design and technology (textiles)",
    "Drama and theatre studies",
    "Early years",
    "Economics",
    "Engineering",
    "English",
    "English as a second or other language",
    "English language",
    "English literature",
    "French",
    "Further education",
    "Geography",
    "German",
    "Greek",
    "Health and social care",
    "History",
    "Humanities",
    "Information communication technology",
    "Information technology",
    "Italian",
    "Japanese",
    "Languages",
    "Languages (asian)",
    "Languages (european)",
    "Latin",
    "Literacy",
    "Lower primary",
    "Mandarin",
    "Mathematics",
    "Mathematics (abridged)",
    "Middle years",
    "Music",
    "Numeracy",
    "Outdoor activities",
    "Personal and social education",
    "Philosophy",
    "Physical education",
    "Physics",
    "Physics (abridged)",
    "Post-compulsory",
    "Primary",
    "Psychology",
    "Religious education",
    "Russian",
    "Science",
    "Secondary",
    "Social science",
    "Spanish",
    "Special educational needs",
    "Upper primary",
    "Urdu",
    "Welsh"
  ],
  "groupedSubjects": {
    "Primary": [
      "Primary",
      "Lower primary",
      "Upper primary",
      "Early years"
    ],
    "Secondary": [
      "Art / art & design",
      "Biology",
      "Business education",
      "Chemistry",
      "Classics",
      "Communication and media studies",
      "Computer studies",
      "Dance and performance",
      "Design and technology",
      "Design and technology (food)",
      "Design and technology (product design)",
      "Design and technology (systems and control)",
      "Design and technology (textiles)",
      "Drama and theatre studies",
      "Economics",
      "Engineering",
      "English",
      "English language",
      "English literature",
      "Geography",
      "Greek",
      "Health and social care",
      "History",
      "Humanities",
      "Information communication technology",
      "Information technology",
      "Latin",
      "Mathematics",
      "Music",
      "Outdoor activities",
      "Personal and social education",
      "Philosophy",
      "Physical education",
      "Physics",
      "Psychology",
      "Religious education",
      "Science",
      "Social science"
    ],
    "Modern languages": [
      "Languages",
      "Languages (asian)",
      "Languages (european)",
      "Arabic",
      "English as a second or other language",
      "French",
      "German",
      "Italian",
      "Japanese",
      "Mandarin",
      "Russian",
      "Spanish",
      "Urdu",
      "Welsh"
    ],
    "Other subjects": [
      "Citizenship",
      "Post-compulsory",
      "Special educational needs"
    ]
  },
  "courses": [
    {
      "locationType": "University",
      "accrediting": null,
      "provider": "Goldsmiths, University of London",
      "subjects": [
        "Design and technology",
        "Secondary"
      ],
      "name": "Design and Technology",
      "slug": "G56/WX91",
      "providerCode": "G56",
      "programmeCode": "WX91",
      "schools": [
        {
          "name": "Main Site",
          "address": "Goldsmiths College, University of London, New Cross, London, SE14 6NW",
          "code": ""
        }
      ],
      "addresses": [
        {
          "address": "Goldsmiths College, University of London, New Cross, London, SE14 6NW",
          "geocode": true,
          "formatted_address": "8 Lewisham Way, New Cross, London SE14 6NW, UK",
          "latitude": 51.47427099999999,
          "longitude": -0.035408,
          "post_code": "SE14 6NW",
          "city": "Greater London",
          "route": "Lewisham Way",
          "postal_town": "London"
        }
      ],
      "providerAddress": {
        "inst_code": "G56",
        "addr_1": "New Cross",
        "addr_2": null,
        "addr_3": "Lewisham",
        "addr_4": "London",
        "postcode": "SE14 6NW",
        "url": "http://www.gold.ac.uk",
        "geocode": true,
        "formatted_address": "New Cross, London SE14 5NH, UK",
        "latitude": 51.471022,
        "longitude": -0.040245,
        "post_code": "SE14 5NH",
        "city": "Greater London",
        "route": null,
        "postal_town": "London"
      },
      "options": [
        "QTS, part time"
      ]
    },
    {
      "locationType": "School",
      "accrediting": "United Teaching National SCITT",
      "provider": "Paddington Academy (United Teaching)",
      "subjects": [
        "Physics",
        "Science",
        "Secondary"
      ],
      "name": "Physics",
      "slug": "1A9/24HD",
      "providerCode": "1A9",
      "programmeCode": "24HD",
      "schools": [
        {
          "name": "Paddington Academy",
          "address": "Paddington Academy, 50 Maryland Road, London, W92DR",
          "code": "-"
        },
        {
          "name": "William Hulme's Grammar School",
          "address": "Spring Bridge Road, Manchester, M168PR",
          "code": "2"
        },
        {
          "name": "Accrington Academy",
          "address": "Queens Road west, Accrington, Lancashire, BB54FF",
          "code": "3"
        },
        {
          "name": "Ashford School and Wye School",
          "address": "East Hill, Ashford, Kent, TN248PB",
          "code": "4"
        },
        {
          "name": "Barnsley Academy",
          "address": "Farm Road, Kendray, Barnsley, S703DL",
          "code": "5"
        },
        {
          "name": "Guildford High School",
          "address": "London Road, Guildford, Surrey, GU11SJ",
          "code": "8"
        },
        {
          "name": "Kettering Buccleuch Academy",
          "address": "Weekley Glebe Road, Kettering, Northamptonshire, NN169NS",
          "code": "9"
        },
        {
          "name": "Lambeth Academy",
          "address": "Elms Road, Clapham, London, SW49ET",
          "code": "A"
        },
        {
          "name": "Sheffield Park & Sheffield Springs",
          "address": "Sheffield, S12 2SF",
          "code": "B"
        },
        {
          "name": "Manchester Academy",
          "address": "Moss Lane East, Moss Side, Manchester, M144PX",
          "code": "C"
        },
        {
          "name": "North Oxfordshire Academy",
          "address": "Drayton Road, Banbury, Oxfordshire, OX160UD",
          "code": "E"
        },
        {
          "name": "Northampton Academy",
          "address": "Wellingborough Road, Northampton, Northamptonshire, NN39UK",
          "code": "F"
        },
        {
          "name": "Stockport Academy",
          "address": "Heathbank Road, Cheadle Heath, Stockport, SK30UP",
          "code": "H"
        },
        {
          "name": "Swindon & Nova Hreod Academy",
          "address": "Beech Avenue, Swindon, Wiltshire, SN21JR",
          "code": "J"
        },
        {
          "name": "Walthamstow Academy",
          "address": "Billet Road, Walthamstow, London, E175DP",
          "code": "L"
        },
        {
          "name": "Hurlingham Academy",
          "address": "Peterborough Road, Fulham, London, SW6 3ED",
          "code": "R"
        },
        {
          "name": "Shoreham Academy",
          "address": "Kingston Lane, Shoreham-by-Sea, West Sussex, BN436YT",
          "code": "S"
        },
        {
          "name": "Richard Rose Morton Academy",
          "address": "Wigton Road, Carlisle, Cumbria, CA2 6LB",
          "code": "U"
        },
        {
          "name": "Seahaven Academy",
          "address": "Southdown Road, Newhaven, East Sussex, BN9 9JL",
          "code": "V"
        }
      ],
      "addresses": [
        {
          "address": "Paddington Academy, 50 Maryland Road, London, W92DR",
          "geocode": true,
          "formatted_address": "50 Marylands Rd, London W9 2DR, UK",
          "latitude": 51.52494249999999,
          "longitude": -0.1927753,
          "post_code": "W9 2DR",
          "city": "Greater London",
          "route": "Marylands Road",
          "postal_town": "London"
        },
        {
          "address": "Spring Bridge Road, Manchester, M168PR",
          "geocode": true,
          "formatted_address": "Spring Bridge Rd, Manchester M16 8PR, UK",
          "latitude": 53.4453513,
          "longitude": -2.2489721,
          "post_code": "M16 8PR",
          "city": "Greater Manchester",
          "route": "Spring Bridge Road",
          "postal_town": "Manchester"
        },
        {
          "address": "Queens Road west, Accrington, Lancashire, BB54FF",
          "geocode": true,
          "formatted_address": "Queens Rd W, Accrington BB5 4FF, UK",
          "latitude": 53.7599674,
          "longitude": -2.3734937,
          "post_code": "BB5 4FF",
          "city": "Lancashire",
          "route": "Queens Road West",
          "postal_town": "Accrington"
        },
        {
          "address": "East Hill, Ashford, Kent, TN248PB",
          "geocode": true,
          "formatted_address": "Ashford TN24 8PB, UK",
          "latitude": 51.14968409999999,
          "longitude": 0.8784426999999999,
          "post_code": "TN24 8PB",
          "city": "Kent",
          "route": null,
          "postal_town": "Ashford"
        },
        {
          "address": "Farm Road, Kendray, Barnsley, S703DL",
          "geocode": true,
          "formatted_address": "Farm Rd, Barnsley S70 3DL, UK",
          "latitude": 53.53887040000001,
          "longitude": -1.4520201,
          "post_code": "S70 3DL",
          "city": "South Yorkshire",
          "route": "Farm Road",
          "postal_town": "Barnsley"
        },
        {
          "address": "London Road, Guildford, Surrey, GU11SJ",
          "geocode": true,
          "formatted_address": "Guildford GU1, UK",
          "latitude": 51.24064,
          "longitude": -0.5650499999999999,
          "post_code": "GU1",
          "city": "Surrey",
          "route": null,
          "postal_town": "Guildford"
        },
        {
          "address": "Weekley Glebe Road, Kettering, Northamptonshire, NN169NS",
          "geocode": true,
          "formatted_address": "Weekley Glebe Rd, Kettering NN16 9NS, UK",
          "latitude": 52.4116103,
          "longitude": -0.7110604,
          "post_code": "NN16 9NS",
          "city": "Northamptonshire",
          "route": "Weekley Glebe Road",
          "postal_town": "Kettering"
        },
        {
          "address": "Elms Road, Clapham, London, SW49ET",
          "geocode": true,
          "formatted_address": "Elms Rd SW, London SW4 9ET, UK",
          "latitude": 51.4574101,
          "longitude": -0.1414013,
          "post_code": "SW4 9ET",
          "city": "Greater London",
          "route": "Elms Road Southwest",
          "postal_town": "London"
        },
        {
          "address": "Sheffield, S12 2SF",
          "geocode": true,
          "formatted_address": "Hurlfield Rd, Sheffield S12 2SF, UK",
          "latitude": 53.3573426,
          "longitude": -1.4321584,
          "post_code": "S12 2SF",
          "city": "South Yorkshire",
          "route": "Hurlfield Road",
          "postal_town": "Sheffield"
        },
        {
          "address": "Moss Lane East, Moss Side, Manchester, M144PX",
          "geocode": true,
          "formatted_address": "Moss Ln E, Manchester M14 4PW, UK",
          "latitude": 53.4579751,
          "longitude": -2.2345823,
          "post_code": "M14 4PW",
          "city": "Greater Manchester",
          "route": "Moss Lane East",
          "postal_town": "Manchester"
        },
        {
          "address": "Drayton Road, Banbury, Oxfordshire, OX160UD",
          "geocode": true,
          "formatted_address": "Banbury OX16 0UD, UK",
          "latitude": 52.0720432,
          "longitude": -1.3678305,
          "post_code": "OX16 0UD",
          "city": "Oxfordshire",
          "route": null,
          "postal_town": "Banbury"
        },
        {
          "address": "Wellingborough Road, Northampton, Northamptonshire, NN39UK",
          "geocode": true,
          "formatted_address": "Wellingborough Rd, Northampton NN1 4EJ, UK",
          "latitude": 52.2525024,
          "longitude": -0.8460097,
          "post_code": "NN1 4EJ",
          "city": "Northamptonshire",
          "route": "Wellingborough Road",
          "postal_town": "Northampton"
        },
        {
          "address": "Heathbank Road, Cheadle Heath, Stockport, SK30UP",
          "geocode": true,
          "formatted_address": "Heathbank Rd, Stockport SK3 0UP, UK",
          "latitude": 53.399924,
          "longitude": -2.1839293,
          "post_code": "SK3 0UP",
          "city": "Greater Manchester",
          "route": "Heathbank Road",
          "postal_town": "Stockport"
        },
        {
          "address": "Beech Avenue, Swindon, Wiltshire, SN21JR",
          "geocode": true,
          "formatted_address": "Beech Ave, Swindon SN2 1LL, UK",
          "latitude": 51.5800609,
          "longitude": -1.7903819,
          "post_code": "SN2 1LL",
          "city": "Swindon",
          "route": "Beech Avenue",
          "postal_town": "Swindon"
        },
        {
          "address": "Billet Road, Walthamstow, London, E175DP",
          "geocode": true,
          "formatted_address": "Billet Rd, Walthamstow, London E17 5DP, UK",
          "latitude": 51.5997073,
          "longitude": -0.0244436,
          "post_code": "E17 5DP",
          "city": "Greater London",
          "route": "Billet Road",
          "postal_town": "London"
        },
        {
          "address": "Peterborough Road, Fulham, London, SW6 3ED",
          "geocode": true,
          "formatted_address": "Peterborough Rd, Fulham, London SW6 3EB, UK",
          "latitude": 51.4690419,
          "longitude": -0.1962724,
          "post_code": "SW6 3EB",
          "city": "Greater London",
          "route": "Peterborough Road",
          "postal_town": "London"
        },
        {
          "address": "Kingston Lane, Shoreham-by-Sea, West Sussex, BN436YT",
          "geocode": true,
          "formatted_address": "Kingston Ln, Southwick, Brighton BN42 4SJ, UK",
          "latitude": 50.8372665,
          "longitude": -0.2441553,
          "post_code": "BN42 4SJ",
          "city": "Southwick",
          "route": "Kingston Lane",
          "postal_town": "Brighton"
        },
        {
          "address": "Wigton Road, Carlisle, Cumbria, CA2 6LB",
          "geocode": true,
          "formatted_address": "Wigton Rd, Carlisle CA2 7EP, UK",
          "latitude": 54.8872869,
          "longitude": -2.9628729,
          "post_code": "CA2 7EP",
          "city": "Cumbria",
          "route": "Wigton Road",
          "postal_town": "Carlisle"
        },
        {
          "address": "Southdown Road, Newhaven, East Sussex, BN9 9JL",
          "geocode": true,
          "formatted_address": "Southdown Rd, Newhaven BN9 9JL, UK",
          "latitude": 50.7880028,
          "longitude": 0.0392015,
          "post_code": "BN9 9JL",
          "city": "East Sussex",
          "route": "Southdown Road",
          "postal_town": "Newhaven"
        }
      ],
      "providerAddress": {
        "inst_code": "1A9",
        "addr_1": "Paddington Academy",
        "addr_2": "50 Maryland Road",
        "addr_3": null,
        "addr_4": "London",
        "postcode": "W9 2DR  ",
        "url": "http://www.unitedteaching.org.uk",
        "geocode": true,
        "formatted_address": "50 Marylands Rd, London W9 2DR, UK",
        "latitude": 51.52494249999999,
        "longitude": -0.1927753,
        "post_code": "W9 2DR",
        "city": "Greater London",
        "route": "Marylands Road",
        "postal_town": "London"
      },
      "options": [
        "PGCE with QTS, full time with salary"
      ]
    },
    {
      "locationType": "School",
      "accrediting": "Kent and Medway Training",
      "provider": "Kaizen Teaching School Alliance",
      "subjects": [
        "Art / art & design",
        "Secondary"
      ],
      "name": "Art and Design",
      "slug": "2AG/2ZJT",
      "providerCode": "2AG",
      "programmeCode": "2ZJT",
      "schools": [
        {
          "name": "Main Site",
          "address": "Tudeley Ln, Tonbridge, Kent, TN9 2JP",
          "code": "-"
        }
      ],
      "addresses": [
        {
          "address": "Tudeley Ln, Tonbridge, Kent, TN9 2JP",
          "geocode": true,
          "formatted_address": "Tudeley Ln, Tonbridge TN9 2JP, UK",
          "latitude": 51.1846318,
          "longitude": 0.2815165,
          "post_code": "TN9 2JP",
          "city": "Kent",
          "route": "Tudeley Lane",
          "postal_town": "Tonbridge"
        }
      ],
      "providerAddress": {
        "inst_code": "2AG",
        "addr_1": "Weald of Kent Grammar School",
        "addr_2": "Tudeley Lane",
        "addr_3": "Tonbridge",
        "addr_4": "Kent",
        "postcode": "TN9 2JP ",
        "url": "http://www.kaizentsa.org",
        "geocode": true,
        "formatted_address": "Tudeley Ln, Tonbridge TN9 2JP, UK",
        "latitude": 51.184092,
        "longitude": 0.280423,
        "post_code": "TN9 2JP",
        "city": "Kent",
        "route": "Tudeley Lane",
        "postal_town": "Tonbridge"
      },
      "options": [
        "QTS, full time"
      ]
    },
    {
      "locationType": "University",
      "accrediting": null,
      "provider": "The University of York",
      "subjects": [
        "French",
        "German",
        "Languages",
        "Languages (european)",
        "Secondary"
      ],
      "name": "Modern Languages (French with German)",
      "slug": "Y50/RX11",
      "providerCode": "Y50",
      "programmeCode": "RX11",
      "schools": [
        {
          "name": "Main Site",
          "address": "University of York, Heslington, York, YO10 5DD",
          "code": ""
        }
      ],
      "addresses": [
        {
          "address": "University of York, Heslington, York, YO10 5DD",
          "geocode": true,
          "formatted_address": "Heslington, York YO10 5DD, UK",
          "latitude": 53.9455334,
          "longitude": -1.0561667,
          "post_code": "YO10 5DD",
          "city": "Heslington",
          "route": null,
          "postal_town": "York"
        }
      ],
      "providerAddress": {
        "inst_code": "Y50",
        "addr_1": "Postgraduate Admissions",
        "addr_2": "The Stables",
        "addr_3": "Heslington",
        "addr_4": "York",
        "postcode": "YO10 5DD",
        "url": "http://www.york.ac.uk/pgce",
        "geocode": true,
        "formatted_address": "Heslington, York YO10 5JU, UK",
        "latitude": 53.94531749999999,
        "longitude": -1.0465255,
        "post_code": "YO10 5JU",
        "city": "Heslington",
        "route": null,
        "postal_town": "York"
      },
      "options": [
        "PGCE with QTS, full time"
      ]
    },
    {
      "locationType": "School",
      "accrediting": "Sheffield Hallam University",
      "provider": "Outwood Institute of Education - South",
      "subjects": [
        "Primary"
      ],
      "name": "Primary",
      "slug": "1GV/25KN",
      "providerCode": "1GV",
      "programmeCode": "25KN",
      "schools": [
        {
          "name": "Main Site",
          "address": "Outwood Grange Academy, Potovens Lane, Outwood, Wakefield, WF1 2PF",
          "code": "-"
        }
      ],
      "addresses": [
        {
          "address": "Outwood Grange Academy, Potovens Lane, Outwood, Wakefield, WF1 2PF",
          "geocode": true,
          "formatted_address": "Potovens Ln, Wakefield WF1 2PF, UK",
          "latitude": 53.70898589999999,
          "longitude": -1.5129206,
          "post_code": "WF1 2PF",
          "city": "West Yorkshire",
          "route": "Potovens Lane",
          "postal_town": "Wakefield"
        }
      ],
      "providerAddress": {
        "inst_code": "1GV",
        "addr_1": "Outwood Institute of Education",
        "addr_2": "Tenter Balk Lane",
        "addr_3": "Doncaster",
        "addr_4": null,
        "postcode": "DN6 7RQ ",
        "url": "http://oie.outwood.com",
        "geocode": true,
        "formatted_address": "Adwick le Street, Doncaster DN6 7EQ, UK",
        "latitude": 53.56695569999999,
        "longitude": -1.1966032,
        "post_code": "DN6 7EQ",
        "city": "Adwick le Street",
        "route": null,
        "postal_town": "Doncaster"
      },
      "options": [
        "PGCE with QTS, full time"
      ]
    },
    {
      "locationType": "School",
      "accrediting": "University of Bedfordshire",
      "provider": "MCA Partnership",
      "subjects": [
        "Geography",
        "Secondary"
      ],
      "name": "Geography",
      "slug": "2CZ/2ZHH",
      "providerCode": "2CZ",
      "programmeCode": "2ZHH",
      "schools": [
        {
          "name": "Main Site",
          "address": "Bury Road, Mildenhall, Bury St Edmunds, IP28 7HT",
          "code": "-"
        }
      ],
      "addresses": [
        {
          "address": "Bury Road, Mildenhall, Bury St Edmunds, IP28 7HT",
          "geocode": true,
          "formatted_address": "Bury Rd, Mildenhall, Bury Saint Edmunds IP28 7HT, UK",
          "latitude": 52.3435089,
          "longitude": 0.5258208,
          "post_code": "IP28 7HT",
          "city": "Mildenhall",
          "route": "Bury Road",
          "postal_town": "Bury Saint Edmunds"
        }
      ],
      "providerAddress": {
        "inst_code": "2CZ",
        "addr_1": "Bury Road",
        "addr_2": "Mildenhall",
        "addr_3": null,
        "addr_4": "Bury St Edmunds",
        "postcode": "IP28 7HT",
        "url": "http://www.mildenhall.attrust.org.uk",
        "geocode": true,
        "formatted_address": "Bury Rd, Barrow, Bury Saint Edmunds IP29 5DE, UK",
        "latitude": 52.2442366,
        "longitude": 0.593399,
        "post_code": "IP29 5DE",
        "city": "Barrow",
        "route": "Bury Road",
        "postal_town": "Bury Saint Edmunds"
      },
      "options": [
        "PGCE with QTS, full time"
      ]
    },
    {
      "locationType": "School",
      "accrediting": "Suffolk and Norfolk Secondary SCITT",
      "provider": "Bury St Edmunds County Upper School",
      "subjects": [
        "Geography",
        "Secondary"
      ],
      "name": "Geography",
      "slug": "1OZ/36DK",
      "providerCode": "1OZ",
      "programmeCode": "36DK",
      "schools": [
        {
          "name": "Main Site",
          "address": "Beetons Way, Bury St Edmunds, IP32 6RF",
          "code": "-"
        }
      ],
      "addresses": [
        {
          "address": "Beetons Way, Bury St Edmunds, IP32 6RF",
          "geocode": true,
          "formatted_address": "Beetons Way, Bury Saint Edmunds IP32 6RE, UK",
          "latitude": 52.2537302,
          "longitude": 0.6988363999999999,
          "post_code": "IP32 6RE",
          "city": "Suffolk",
          "route": "Beetons Way",
          "postal_town": "Bury Saint Edmunds"
        }
      ],
      "providerAddress": {
        "inst_code": "1OZ",
        "addr_1": "County Upper School",
        "addr_2": "Beetons Way",
        "addr_3": null,
        "addr_4": "Bury St Edmunds",
        "postcode": "IP32 6RF",
        "url": "http://www.countyupper.suffolk.sch.uk/School-Direct/index.htm",
        "geocode": true,
        "formatted_address": "Beetons Way, Bury Saint Edmunds IP32 6RF, UK",
        "latitude": 52.2569588,
        "longitude": 0.7014416,
        "post_code": "IP32 6RF",
        "city": "Suffolk",
        "route": "Beetons Way",
        "postal_town": "Bury Saint Edmunds"
      },
      "options": [
        "PGCE with QTS, part time"
      ]
    },
    {
      "locationType": "School",
      "accrediting": "The University of Sheffield",
      "provider": "Aston Academy",
      "subjects": [
        "Biology",
        "Science",
        "Secondary"
      ],
      "name": "Biology",
      "slug": "17U/23LB",
      "providerCode": "17U",
      "programmeCode": "23LB",
      "schools": [
        {
          "name": "Main Site",
          "address": "Aughton Road, Swallownest, Sheffield, S26 4SF",
          "code": "-"
        }
      ],
      "addresses": [
        {
          "address": "Aughton Road, Swallownest, Sheffield, S26 4SF",
          "geocode": true,
          "formatted_address": "Aughton Rd, Sheffield S26 4TH, UK",
          "latitude": 53.3672148,
          "longitude": -1.3229429,
          "post_code": "S26 4TH",
          "city": "South Yorkshire",
          "route": "Aughton Road",
          "postal_town": "Sheffield"
        }
      ],
      "providerAddress": {
        "inst_code": "17U",
        "addr_1": "Aughton Road",
        "addr_2": "Swallownest",
        "addr_3": null,
        "addr_4": "Sheffield",
        "postcode": "S26 4SF ",
        "url": "http://www.astonacademy.org",
        "geocode": true,
        "formatted_address": "Aughton Rd, Sheffield S26 4TH, UK",
        "latitude": 53.3689797,
        "longitude": -1.3212167,
        "post_code": "S26 4TH",
        "city": "South Yorkshire",
        "route": "Aughton Road",
        "postal_town": "Sheffield"
      },
      "options": [
        "PGCE with QTS, full time"
      ]
    },
    {
      "locationType": "School",
      "accrediting": "University of Sussex",
      "provider": "Eastbourne Area School Direct Alliance",
      "subjects": [
        "Primary"
      ],
      "name": "Primary",
      "slug": "1J5/34ZS",
      "providerCode": "1J5",
      "programmeCode": "34ZS",
      "schools": [
        {
          "name": "Hawkes Farm & Burfield Academies",
          "address": "Hawks Road, Hailsham, BN27 1ND",
          "code": "3"
        }
      ],
      "addresses": [
        {
          "address": "Hawks Road, Hailsham, BN27 1ND",
          "geocode": true,
          "formatted_address": "Hawks Rd, Hailsham BN27 1ND, UK",
          "latitude": 50.8775144,
          "longitude": 0.2544513,
          "post_code": "BN27 1ND",
          "city": "East Sussex",
          "route": "Hawks Road",
          "postal_town": "Hailsham"
        }
      ],
      "providerAddress": {
        "inst_code": "1J5",
        "addr_1": "Broad Road",
        "addr_2": "Lower Willingdon",
        "addr_3": null,
        "addr_4": "Eastbourne",
        "postcode": "BN20 9QX",
        "url": "http://www.willingdonschool.org.uk",
        "geocode": true,
        "formatted_address": "Broad Rd, Eastbourne BN20 9QS, UK",
        "latitude": 50.8114363,
        "longitude": 0.2418378,
        "post_code": "BN20 9QS",
        "city": "East Sussex",
        "route": "Broad Road",
        "postal_town": "Eastbourne"
      },
      "options": [
        "PGCE with QTS, full time with salary"
      ]
    },
    {
      "locationType": "School",
      "accrediting": "Canterbury Christ Church University",
      "provider": "Dover Deal Sandwich Partnership",
      "subjects": [
        "Geography",
        "Secondary"
      ],
      "name": "Geography",
      "slug": "1CG/374R",
      "providerCode": "1CG",
      "programmeCode": "374R",
      "schools": [
        {
          "name": "Astor College",
          "address": "Astor Avenue, Dover, Kent, CT17 0AS",
          "code": "T"
        },
        {
          "name": "Sandwich Technology School",
          "address": "Deal Road, Sandwich, CT13 0FA",
          "code": "V"
        }
      ],
      "addresses": [
        {
          "address": "Astor Avenue, Dover, Kent, CT17 0AS",
          "geocode": true,
          "formatted_address": "Astor Ave, Dover CT17 0AU, UK",
          "latitude": 51.1278302,
          "longitude": 1.2965093,
          "post_code": "CT17 0AU",
          "city": "Kent",
          "route": "Astor Avenue",
          "postal_town": "Dover"
        },
        {
          "address": "Deal Road, Sandwich, CT13 0FA",
          "geocode": true,
          "formatted_address": "Deal Rd, Sandwich CT13 0FA, UK",
          "latitude": 51.2641874,
          "longitude": 1.337717,
          "post_code": "CT13 0FA",
          "city": "Kent",
          "route": "Deal Road",
          "postal_town": "Sandwich"
        }
      ],
      "providerAddress": {
        "inst_code": "1CG",
        "addr_1": "Dover Deal Sandwich Partnership",
        "addr_2": "Sandwich Technology School",
        "addr_3": "Deal Road",
        "addr_4": "Sandwich",
        "postcode": "CT13 0FA",
        "url": null,
        "geocode": true,
        "formatted_address": "Deal Rd, Sandwich CT13 0FA, UK",
        "latitude": 51.265011,
        "longitude": 1.335203,
        "post_code": "CT13 0FA",
        "city": "Kent",
        "route": "Deal Road",
        "postal_town": "Sandwich"
      },
      "options": [
        "QTS, full time"
      ]
    },
    {
      "locationType": "School",
      "accrediting": "University of Sunderland",
      "provider": "Castle View Enterprise Academy",
      "subjects": [
        "History",
        "Secondary"
      ],
      "name": "History",
      "slug": "2FS/3649",
      "providerCode": "2FS",
      "programmeCode": "3649",
      "schools": [
        {
          "name": "Main Site",
          "address": "Cartwright Road, Sunderland, Tyne and Wear, SR5 3DX",
          "code": "-"
        },
        {
          "name": "St Wilfrid's RC College",
          "address": "Temple Park Road, South Shields, NE34 0QA",
          "code": "3"
        }
      ],
      "addresses": [
        {
          "address": "Cartwright Road, Sunderland, Tyne and Wear, SR5 3DX",
          "geocode": true,
          "formatted_address": "Cartwright Rd, Sunderland SR5 3DX, UK",
          "latitude": 54.9183514,
          "longitude": -1.4472475,
          "post_code": "SR5 3DX",
          "city": "Tyne and Wear",
          "route": "Cartwright Road",
          "postal_town": "Sunderland"
        },
        {
          "address": "Temple Park Road, South Shields, NE34 0QA",
          "geocode": true,
          "formatted_address": "Temple Park Rd, South Shields NE34 0QA, UK",
          "latitude": 54.9782223,
          "longitude": -1.4308276,
          "post_code": "NE34 0QA",
          "city": "Tyne and Wear",
          "route": "Temple Park Road",
          "postal_town": "South Shields"
        }
      ],
      "providerAddress": {
        "inst_code": "2FS",
        "addr_1": "Castle View Enterprise Academy",
        "addr_2": "Cartwright Road",
        "addr_3": "Sunderland",
        "addr_4": "Tyne and Wear",
        "postcode": "SR5 3DX ",
        "url": "http://www.castleviewenterpriseacademy.co.uk/",
        "geocode": true,
        "formatted_address": "Cartwright Rd, Sunderland SR5 3DX, UK",
        "latitude": 54.917799,
        "longitude": -1.450058,
        "post_code": "SR5 3DX",
        "city": "Tyne and Wear",
        "route": "Cartwright Road",
        "postal_town": "Sunderland"
      },
      "options": [
        "PGCE with QTS, full time"
      ]
    },
    {
      "locationType": "School",
      "accrediting": "UCL, University College London (University of London",
      "provider": "Kingston School Direct",
      "subjects": [
        "Chemistry",
        "Science",
        "Secondary"
      ],
      "name": "Chemistry",
      "slug": "1FM/26ZC",
      "providerCode": "1FM",
      "programmeCode": "26ZC",
      "schools": [
        {
          "name": "Main Site",
          "address": "Coombe Girls' School, Clarence Avenue, New Malden, Kingston-Upon-Thames, KT3 3TU",
          "code": "-"
        }
      ],
      "addresses": [
        {
          "address": "Coombe Girls' School, Clarence Avenue, New Malden, Kingston-Upon-Thames, KT3 3TU",
          "geocode": true,
          "formatted_address": "Clarence Ave, New Malden KT3 3TU, UK",
          "latitude": 51.4099484,
          "longitude": -0.2635318,
          "post_code": "KT3 3TU",
          "city": "Greater London",
          "route": "Clarence Avenue",
          "postal_town": "New Malden"
        }
      ],
      "providerAddress": {
        "inst_code": "1FM",
        "addr_1": "Coombe Girls' School",
        "addr_2": "Clarence Avenue",
        "addr_3": "New Malden",
        "addr_4": "Kingston-Upon-Thames",
        "postcode": "KT3 3TU ",
        "url": "http://www.coombegirlsschool.org",
        "geocode": true,
        "formatted_address": "Clarence Ave, New Malden KT3 3TU, UK",
        "latitude": 51.4099484,
        "longitude": -0.2635318,
        "post_code": "KT3 3TU",
        "city": "Greater London",
        "route": "Clarence Avenue",
        "postal_town": "New Malden"
      },
      "options": [
        "PGCE with QTS, full time"
      ]
    },
    {
      "locationType": "School",
      "accrediting": "University of Wolverhampton",
      "provider": "Heath Park",
      "subjects": [
        "Mathematics",
        "Secondary"
      ],
      "name": "Mathematics",
      "slug": "1VG/2PVL",
      "providerCode": "1VG",
      "programmeCode": "2PVL",
      "schools": [
        {
          "name": "Heath Park School",
          "address": "Prestwood Road, Wolverhampton, WV11 IRD",
          "code": "H"
        }
      ],
      "addresses": [
        {
          "address": "Prestwood Road, Wolverhampton, WV11 IRD",
          "geocode": true,
          "formatted_address": "Prestwood Rd, Wolverhampton WV11 1RA, UK",
          "latitude": 52.6011202,
          "longitude": -2.1001906,
          "post_code": "WV11 1RA",
          "city": "West Midlands",
          "route": "Prestwood Road",
          "postal_town": "Wolverhampton"
        }
      ],
      "providerAddress": {
        "inst_code": "1VG",
        "addr_1": "Heath Park",
        "addr_2": "Prestwood Road",
        "addr_3": null,
        "addr_4": "Wolverhampton",
        "postcode": "WV11 1RD",
        "url": "http://www.heathpark.net",
        "geocode": true,
        "formatted_address": "Prestwood Rd, Wolverhampton WV11 1RD, UK",
        "latitude": 52.60159119999999,
        "longitude": -2.099238,
        "post_code": "WV11 1RD",
        "city": "West Midlands",
        "route": "Prestwood Road",
        "postal_town": "Wolverhampton"
      },
      "options": [
        "QTS, full time"
      ]
    },
    {
      "locationType": "School",
      "accrediting": "UCL, University College London (University of London",
      "provider": "Brent Teaching School Alliance",
      "subjects": [
        "Primary"
      ],
      "name": "Primary",
      "slug": "25Z/2PNG",
      "providerCode": "25Z",
      "programmeCode": "2PNG",
      "schools": [
        {
          "name": "Main Site",
          "address": "Spencer Road, Wembley, Middlesex, HA0 3SF",
          "code": "-"
        }
      ],
      "addresses": [
        {
          "address": "Spencer Road, Wembley, Middlesex, HA0 3SF",
          "geocode": true,
          "formatted_address": "Spencer Rd, Wembley HA0 3SF, UK",
          "latitude": 51.5691735,
          "longitude": -0.3125293,
          "post_code": "HA0 3SF",
          "city": "Greater London",
          "route": "Spencer Road",
          "postal_town": "Wembley"
        }
      ],
      "providerAddress": {
        "inst_code": "25Z",
        "addr_1": "Spencer Road",
        "addr_2": null,
        "addr_3": "Wembley",
        "addr_4": "Middlesex",
        "postcode": "HA0 3SF ",
        "url": "http://www.btsa.london",
        "geocode": true,
        "formatted_address": "Spencer Rd, Wembley HA0 3SF, UK",
        "latitude": 51.5693045,
        "longitude": -0.3116673,
        "post_code": "HA0 3SF",
        "city": "Greater London",
        "route": "Spencer Road",
        "postal_town": "Wembley"
      },
      "options": [
        "PGCE with QTS, full time"
      ]
    },
    {
      "locationType": "University",
      "accrediting": null,
      "provider": "The University of Nottingham",
      "subjects": [
        "English",
        "Secondary"
      ],
      "name": "English",
      "slug": "N84/Q3X1",
      "providerCode": "N84",
      "programmeCode": "Q3X1",
      "schools": [
        {
          "name": "Main Site",
          "address": "School of Education, Jubilee Campus, Wollaton Road, Nottingham, NG8 1BB",
          "code": ""
        }
      ],
      "addresses": [
        {
          "address": "School of Education, Jubilee Campus, Wollaton Road, Nottingham, NG8 1BB",
          "geocode": true,
          "formatted_address": "7301 Wollaton Rd, Nottingham NG8 1BB, UK",
          "latitude": 52.9529178,
          "longitude": -1.1846343,
          "post_code": "NG8 1BB",
          "city": "Nottinghamshire",
          "route": "Wollaton Road",
          "postal_town": "Nottingham"
        }
      ],
      "providerAddress": {
        "inst_code": "N84",
        "addr_1": "Jubilee Campus",
        "addr_2": null,
        "addr_3": "Nottingham",
        "addr_4": null,
        "postcode": "NG8 1BB ",
        "url": "http://www.nottingham.ac.uk/education",
        "geocode": true,
        "formatted_address": "7301 Wollaton Rd, Nottingham NG8 1BB, UK",
        "latitude": 52.9529178,
        "longitude": -1.1846343,
        "post_code": "NG8 1BB",
        "city": "Nottinghamshire",
        "route": "Wollaton Road",
        "postal_town": "Nottingham"
      },
      "options": [
        "PGCE with QTS, full time"
      ]
    },
    {
      "locationType": "School",
      "accrediting": "Partnership London SCITT (PLS",
      "provider": "East London Teaching School Alliance",
      "subjects": [
        "Languages",
        "Secondary"
      ],
      "name": "Modern Foreign Languages",
      "slug": "1XC/34GQ",
      "providerCode": "1XC",
      "programmeCode": "34GQ",
      "schools": [
        {
          "name": "Main Site",
          "address": "St George's Road, Forest Gate, London, E7 8HU",
          "code": "-"
        }
      ],
      "addresses": [
        {
          "address": "St George's Road, Forest Gate, London, E7 8HU",
          "geocode": true,
          "formatted_address": "St George's Rd, London E7 8HU, UK",
          "latitude": 51.5420996,
          "longitude": 0.0296519,
          "post_code": "E7 8HU",
          "city": "Greater London",
          "route": "Saint George's Road",
          "postal_town": "London"
        }
      ],
      "providerAddress": {
        "inst_code": "1XC",
        "addr_1": "St Angela's Ursuline School",
        "addr_2": "St George's Road",
        "addr_3": "Forest Gate",
        "addr_4": "London",
        "postcode": "E7 8HU  ",
        "url": "http://www.stangelas-ursuline.co.uk/",
        "geocode": true,
        "formatted_address": "1 St George's Rd, Forest Gate, London E7 8HU, UK",
        "latitude": 51.5423675,
        "longitude": 0.0271681,
        "post_code": "E7 8HU",
        "city": "Greater London",
        "route": "Saint George's Road",
        "postal_town": "London"
      },
      "options": [
        "QTS, full time with salary"
      ]
    },
    {
      "locationType": "School",
      "accrediting": "The University of Warwick",
      "provider": "Arden",
      "subjects": [
        "Physics",
        "Science",
        "Secondary"
      ],
      "name": "Physics",
      "slug": "2BU/37QR",
      "providerCode": "2BU",
      "programmeCode": "37QR",
      "schools": [
        {
          "name": "CTC Kingshurst Academy",
          "address": "Cooks Lane, Kingshurst, Birmingham, B37 6NU",
          "code": "C"
        }
      ],
      "addresses": [
        {
          "address": "Cooks Lane, Kingshurst, Birmingham, B37 6NU",
          "geocode": true,
          "formatted_address": "Cooks Ln, Birmingham B37 6NU, UK",
          "latitude": 52.48782449999999,
          "longitude": -1.7465097,
          "post_code": "B37 6NU",
          "city": "West Midlands",
          "route": "Cooks Lane",
          "postal_town": "Birmingham"
        }
      ],
      "providerAddress": {
        "inst_code": "2BU",
        "addr_1": "Station Road",
        "addr_2": "Knowle",
        "addr_3": "Solihull",
        "addr_4": "West Midlands",
        "postcode": "B93 0PT ",
        "url": "http://www.arden.solihull.sch.uk/",
        "geocode": true,
        "formatted_address": "Station Rd, Knowle, Solihull B93 0HJ, UK",
        "latitude": 52.379991,
        "longitude": -1.7455382,
        "post_code": "B93 0HJ",
        "city": "Knowle",
        "route": "Station Road",
        "postal_town": "Solihull"
      },
      "options": [
        "PGCE with QTS, full time"
      ]
    },
    {
      "locationType": "School",
      "accrediting": "Essex and Thames Primary SCITT",
      "provider": "The Wickford Church of England School",
      "subjects": [
        "Primary"
      ],
      "name": "Primary (PG Teaching Apprenticeship)",
      "slug": "13O/389B",
      "providerCode": "13O",
      "programmeCode": "389B",
      "schools": [
        {
          "name": "Essex and Thames Primary SCITT",
          "address": "Runwell Primary School, Canewdon Gardens, Wickford, SS117BJ",
          "code": "A"
        }
      ],
      "addresses": [
        {
          "address": "Runwell Primary School, Canewdon Gardens, Wickford, SS117BJ",
          "geocode": true,
          "formatted_address": "Canewdon Gardens, Wickford SS11 7BJ, UK",
          "latitude": 51.6227743,
          "longitude": 0.5249087,
          "post_code": "SS11 7BJ",
          "city": "Essex",
          "route": "Canewdon Gardens",
          "postal_town": "Wickford"
        }
      ],
      "providerAddress": {
        "inst_code": "13O",
        "addr_1": "Essex and Thames Primary SCITT",
        "addr_2": "Canewdon Gardens",
        "addr_3": null,
        "addr_4": "Wickford",
        "postcode": "SS11 7BJ",
        "url": "http://www.essexandthamesprimaryscitt.co.uk",
        "geocode": true,
        "formatted_address": "Runwell Community Primary School, Canewdon Gardens, Wickford SS11 7BJ, United Kingdom",
        "latitude": 51.6230527,
        "longitude": 0.52348,
        "post_code": "SS11 7BJ",
        "city": null,
        "route": "Canewdon Gardens",
        "postal_town": "Wickford"
      },
      "options": [
        "PGCE with QTS, full time with salary"
      ]
    },
    {
      "locationType": "School",
      "accrediting": "Durham SCITT",
      "provider": "Prince Bishops Teaching School - Whitburn C of E Academy - Secondary",
      "subjects": [
        "Languages",
        "Languages (european)",
        "Secondary",
        "Spanish"
      ],
      "name": "Modern Languages (Spanish)",
      "slug": "23F/32QN",
      "providerCode": "23F",
      "programmeCode": "32QN",
      "schools": [
        {
          "name": "Venerable Bede Church of England Academy",
          "address": "Tunstall Bank, Sunderland, SR2 0SX",
          "code": "V"
        }
      ],
      "addresses": [
        {
          "address": "Tunstall Bank, Sunderland, SR2 0SX",
          "geocode": true,
          "formatted_address": "Tunstall Bank, Sunderland SR2 0SX, UK",
          "latitude": 54.869934,
          "longitude": -1.3635404,
          "post_code": "SR2 0SX",
          "city": "Tyne and Wear",
          "route": null,
          "postal_town": "Sunderland"
        }
      ],
      "providerAddress": {
        "inst_code": "23F",
        "addr_1": "Whitburn Church of England Academy",
        "addr_2": "Whitburn",
        "addr_3": "Sunderland",
        "addr_4": "Tyne & Wear",
        "postcode": "SR6 7EF ",
        "url": "http://www.pbtsa.co.uk/what-we-do/train-to-teach/",
        "geocode": true,
        "formatted_address": "Rackly Way, Whitburn, Sunderland SR6 7EF, UK",
        "latitude": 54.9497369,
        "longitude": -1.3590943,
        "post_code": "SR6 7EF",
        "city": "Whitburn",
        "route": "Rackly Way",
        "postal_town": "Sunderland"
      },
      "options": [
        "PGCE with QTS, full time"
      ]
    },
    {
      "locationType": "University",
      "accrediting": null,
      "provider": "The University of Huddersfield",
      "subjects": [
        "Mathematics",
        "Secondary"
      ],
      "name": "Mathematics",
      "slug": "H60/G1X1",
      "providerCode": "H60",
      "programmeCode": "G1X1",
      "schools": [
        {
          "name": "Main Site",
          "address": "Queensgate, Huddersfield, HD1 3DH",
          "code": ""
        }
      ],
      "addresses": [
        {
          "address": "Queensgate, Huddersfield, HD1 3DH",
          "geocode": true,
          "formatted_address": "Queensgate, Huddersfield HD1 3DH, UK",
          "latitude": 53.6444896,
          "longitude": -1.7784861,
          "post_code": "HD1 3DH",
          "city": "West Yorkshire",
          "route": "Queensgate",
          "postal_town": "Huddersfield"
        }
      ],
      "providerAddress": {
        "inst_code": "H60",
        "addr_1": "Queensgate",
        "addr_2": null,
        "addr_3": "Huddersfield",
        "addr_4": "Kirklees",
        "postcode": "HD1 3DH ",
        "url": "http://www.hud.ac.uk",
        "geocode": true,
        "formatted_address": "Queensgate, Huddersfield HD1 3DH, UK",
        "latitude": 53.6436494,
        "longitude": -1.7804287,
        "post_code": "HD1 3DH",
        "city": "West Yorkshire",
        "route": "Queensgate",
        "postal_town": "Huddersfield"
      },
      "options": [
        "PGCE with QTS, full time"
      ]
    },
    {
      "locationType": "School",
      "accrediting": "Doncaster ITT Partnership",
      "provider": "Doncaster Regional Alliance For Teacher Training Secondary",
      "subjects": [
        "Business education",
        "Secondary"
      ],
      "name": "Business Studies",
      "slug": "2G3/36PN",
      "providerCode": "2G3",
      "programmeCode": "36PN",
      "schools": [
        {
          "name": "Main Site",
          "address": "Barnsley Road, Scawsby, Doncaster, South Yorkshire, DN5 7UB",
          "code": "-"
        }
      ],
      "addresses": [
        {
          "address": "Barnsley Road, Scawsby, Doncaster, South Yorkshire, DN5 7UB",
          "geocode": true,
          "formatted_address": "Barnsley Rd, Doncaster DN5 7UB, UK",
          "latitude": 53.5402834,
          "longitude": -1.1862772,
          "post_code": "DN5 7UB",
          "city": "South Yorkshire",
          "route": "Barnsley Road",
          "postal_town": "Doncaster"
        }
      ],
      "providerAddress": {
        "inst_code": "2G3",
        "addr_1": "Ridgewood School",
        "addr_2": "Barnsley Road, Scawsby",
        "addr_3": "Doncaster",
        "addr_4": "South Yorkshire",
        "postcode": "DN5 7UB ",
        "url": "http://doncasteritt.co.uk",
        "geocode": true,
        "formatted_address": "Barnsley Rd, Doncaster DN5 7UB, UK",
        "latitude": 53.538602,
        "longitude": -1.182391,
        "post_code": "DN5 7UB",
        "city": "South Yorkshire",
        "route": "Barnsley Road",
        "postal_town": "Doncaster"
      },
      "options": [
        "QTS, full time"
      ]
    },
    {
      "locationType": "School",
      "accrediting": null,
      "provider": "Cornwall School Centred Initial Teacher Training (Cornwall SCITT)",
      "subjects": [
        "Design and technology",
        "Engineering",
        "Secondary"
      ],
      "name": "Design & Technology (Engineering)",
      "slug": "C79/37JX",
      "providerCode": "C79",
      "programmeCode": "37JX",
      "schools": [
        {
          "name": "Main Site",
          "address": "Truro College, College Road, Truro, Cornwall, TR1 3XX",
          "code": ""
        }
      ],
      "addresses": [
        {
          "address": "Truro College, College Road, Truro, Cornwall, TR1 3XX",
          "geocode": true,
          "formatted_address": "College Road, Truro TR1 3XX, United Kingdom",
          "latitude": 50.26305139999999,
          "longitude": -5.1006011,
          "post_code": "TR1 3XX",
          "city": null,
          "route": null,
          "postal_town": "Truro"
        }
      ],
      "providerAddress": {
        "inst_code": "C79",
        "addr_1": "Truro College",
        "addr_2": "College Road",
        "addr_3": "Truro",
        "addr_4": "Cornwall",
        "postcode": "TR1 3XX ",
        "url": "http://www.cornwallscitt.org",
        "geocode": true,
        "formatted_address": "College Road, Truro TR1 3XX, United Kingdom",
        "latitude": 50.26305139999999,
        "longitude": -5.1006011,
        "post_code": "TR1 3XX",
        "city": null,
        "route": null,
        "postal_town": "Truro"
      },
      "options": [
        "PGCE with QTS, full time"
      ]
    },
    {
      "locationType": "School",
      "accrediting": "UCL, University College London (University of London",
      "provider": "City Excellence for Teaching",
      "subjects": [
        "Computer studies",
        "Secondary"
      ],
      "name": "Computing",
      "slug": "1CW/2KR9",
      "providerCode": "1CW",
      "programmeCode": "2KR9",
      "schools": [
        {
          "name": "Main Site",
          "address": "Mulberry School for Girls, Richard Street, Commercial Road, London, E1 2JP",
          "code": "-"
        }
      ],
      "addresses": [
        {
          "address": "Mulberry School for Girls, Richard Street, Commercial Road, London, E1 2JP",
          "geocode": true,
          "formatted_address": "Richard Street, Commercial Road, London E1 2JP, United Kingdom",
          "latitude": 51.51424660000001,
          "longitude": -0.0597694,
          "post_code": "E1 2JP",
          "city": null,
          "route": null,
          "postal_town": "London"
        }
      ],
      "providerAddress": {
        "inst_code": "1CW",
        "addr_1": "Richard Street",
        "addr_2": "Commercial Road",
        "addr_3": null,
        "addr_4": "London",
        "postcode": "E1 2JP  ",
        "url": "http://www.cityexcellenceinteaching.co.uk/",
        "geocode": true,
        "formatted_address": "Commercial Rd & Richard St, Whitechapel, London E1, UK",
        "latitude": 51.5147148,
        "longitude": -0.06027869999999999,
        "post_code": "E1",
        "city": "Greater London",
        "route": null,
        "postal_town": "London"
      },
      "options": [
        "PGCE with QTS, full time"
      ]
    },
    {
      "locationType": "School",
      "accrediting": "UCL, University College London (University of London",
      "provider": "Kingston School Direct",
      "subjects": [
        "Mathematics",
        "Secondary"
      ],
      "name": "Mathematics",
      "slug": "1FM/273Q",
      "providerCode": "1FM",
      "programmeCode": "273Q",
      "schools": [
        {
          "name": "Main Site",
          "address": "Coombe Girls' School, Clarence Avenue, New Malden, Kingston-Upon-Thames, KT3 3TU",
          "code": "-"
        }
      ],
      "addresses": [
        {
          "address": "Coombe Girls' School, Clarence Avenue, New Malden, Kingston-Upon-Thames, KT3 3TU",
          "geocode": true,
          "formatted_address": "Clarence Ave, New Malden KT3 3TU, UK",
          "latitude": 51.4099484,
          "longitude": -0.2635318,
          "post_code": "KT3 3TU",
          "city": "Greater London",
          "route": "Clarence Avenue",
          "postal_town": "New Malden"
        }
      ],
      "providerAddress": {
        "inst_code": "1FM",
        "addr_1": "Coombe Girls' School",
        "addr_2": "Clarence Avenue",
        "addr_3": "New Malden",
        "addr_4": "Kingston-Upon-Thames",
        "postcode": "KT3 3TU ",
        "url": "http://www.coombegirlsschool.org",
        "geocode": true,
        "formatted_address": "Clarence Ave, New Malden KT3 3TU, UK",
        "latitude": 51.4099484,
        "longitude": -0.2635318,
        "post_code": "KT3 3TU",
        "city": "Greater London",
        "route": "Clarence Avenue",
        "postal_town": "New Malden"
      },
      "options": [
        "QTS, full time with salary"
      ]
    },
    {
      "locationType": "School",
      "accrediting": "Leeds Trinity University",
      "provider": "St Marys Teaching School",
      "subjects": [
        "Primary"
      ],
      "name": "Primary",
      "slug": "1QD/2P7X",
      "providerCode": "1QD",
      "programmeCode": "2P7X",
      "schools": [
        {
          "name": "Main Site",
          "address": "Broadgate Lane, Horsforth, Leeds, LS18 5AB",
          "code": "-"
        }
      ],
      "addresses": [
        {
          "address": "Broadgate Lane, Horsforth, Leeds, LS18 5AB",
          "geocode": true,
          "formatted_address": "Broadgate Ln, Horsforth, Leeds LS18 4AG, UK",
          "latitude": 53.8390156,
          "longitude": -1.6311814,
          "post_code": "LS18 4AG",
          "city": "Horsforth",
          "route": "Broadgate Lane",
          "postal_town": "Leeds"
        }
      ],
      "providerAddress": {
        "inst_code": "1QD",
        "addr_1": "St Mary's Teaching School",
        "addr_2": "Broadgate Lane",
        "addr_3": "Horsforth",
        "addr_4": "Leeds",
        "postcode": "LS18 5AB",
        "url": "http://www.stmarysteachingschool.org",
        "geocode": true,
        "formatted_address": "Broadgate Ln, Horsforth, Leeds LS18 5AB, UK",
        "latitude": 53.8399245,
        "longitude": -1.6320481,
        "post_code": "LS18 5AB",
        "city": "Horsforth",
        "route": "Broadgate Lane",
        "postal_town": "Leeds"
      },
      "options": [
        "QTS, full time"
      ]
    },
    {
      "locationType": "University",
      "accrediting": null,
      "provider": "Kings College London (University of London)",
      "subjects": [
        "French",
        "Languages",
        "Languages (european)",
        "Secondary",
        "Spanish"
      ],
      "name": "Modern Languages (Spanish with French)",
      "slug": "K60/RX41",
      "providerCode": "K60",
      "programmeCode": "RX41",
      "schools": [
        {
          "name": "Main Site",
          "address": "Franklin-Wilkins Building, Waterloo Bridge Wing, Waterloo Road, London, SE1 9NN",
          "code": ""
        }
      ],
      "addresses": [
        {
          "address": "Franklin-Wilkins Building, Waterloo Bridge Wing, Waterloo Road, London, SE1 9NN",
          "geocode": true,
          "formatted_address": "Waterloo Rd, South Bank, London SE1, UK",
          "latitude": 51.502334,
          "longitude": -0.1100842,
          "post_code": "SE1",
          "city": "Greater London",
          "route": "Waterloo Road",
          "postal_town": "London"
        }
      ],
      "providerAddress": {
        "inst_code": "K60",
        "addr_1": "King's Admissions Office",
        "addr_2": "James Clerk Maxwell Building",
        "addr_3": null,
        "addr_4": "London",
        "postcode": "SE1 8WA ",
        "url": "http://www.kcl.ac.uk",
        "geocode": true,
        "formatted_address": "57 Waterloo Rd, Lambeth, London SE1 8WA, UK",
        "latitude": 51.50486650000001,
        "longitude": -0.1126887,
        "post_code": "SE1 8WA",
        "city": "Greater London",
        "route": "Waterloo Road",
        "postal_town": "London"
      },
      "options": [
        "PGCE with QTS, full time"
      ]
    },
    {
      "locationType": "School",
      "accrediting": "The Cambridge Teaching Schools Network SCITT",
      "provider": "Cambridge Teaching Schools Network",
      "subjects": [
        "Computer studies",
        "Secondary"
      ],
      "name": "Computing",
      "slug": "1LK/334M",
      "providerCode": "1LK",
      "programmeCode": "334M",
      "schools": [
        {
          "name": "Main Site",
          "address": "Comberton Village College, West Street, Comberton, Cambridge, CB23 7DU",
          "code": "-"
        }
      ],
      "addresses": [
        {
          "address": "Comberton Village College, West Street, Comberton, Cambridge, CB23 7DU",
          "geocode": true,
          "formatted_address": "West St, Comberton, Cambridge CB23 7DU, UK",
          "latitude": 52.1849348,
          "longitude": 0.0116551,
          "post_code": "CB23 7DU",
          "city": "Comberton",
          "route": "West Street",
          "postal_town": "Cambridge"
        }
      ],
      "providerAddress": {
        "inst_code": "1LK",
        "addr_1": "Comberton Village College",
        "addr_2": "West Street",
        "addr_3": "Comberton",
        "addr_4": "Cambridge",
        "postcode": "CB23 7DU",
        "url": "http://www.camteach.org.uk",
        "geocode": true,
        "formatted_address": "West St, Comberton, Cambridge CB23 7DU, UK",
        "latitude": 52.1849348,
        "longitude": 0.0116551,
        "post_code": "CB23 7DU",
        "city": "Comberton",
        "route": "West Street",
        "postal_town": "Cambridge"
      },
      "options": [
        "PGCE with QTS, full time"
      ]
    },
    {
      "locationType": "School",
      "accrediting": "University of Wolverhampton",
      "provider": "Wood Green Academy",
      "subjects": [
        "Chemistry",
        "Science",
        "Secondary"
      ],
      "name": "Chemistry",
      "slug": "1O7/2854",
      "providerCode": "1O7",
      "programmeCode": "2854",
      "schools": [
        {
          "name": "Main Site",
          "address": "Wood Green Academy, Wood Green Road, Wednesbury, WS10 9QU",
          "code": "-"
        },
        {
          "name": "George Salter Academy",
          "address": "Davey Road, West-Bromwich, B70 9WU",
          "code": "G"
        },
        {
          "name": "Wodensborough Ormiston Academy",
          "address": "Hydes Road, Wednesbury, West Midlands, WS10 0DR",
          "code": "O"
        },
        {
          "name": "Pool Hayes Academy",
          "address": "Castle Drive, Willenhall, West Midlands, WV12 4QZ",
          "code": "P"
        },
        {
          "name": "The Royal Wolverhampton School",
          "address": "Penn Road, Wolverhampton, West Midlands, WV3 0EG",
          "code": "R"
        },
        {
          "name": "South Wolverhampton and Bilston Academy",
          "address": "Dudley Steet, Bilston, West Midlands, WV14 0LN",
          "code": "S"
        }
      ],
      "addresses": [
        {
          "address": "Wood Green Academy, Wood Green Road, Wednesbury, WS10 9QU",
          "geocode": true,
          "formatted_address": "Wood Green Rd, Wednesbury WS10 9QU, UK",
          "latitude": 52.5635097,
          "longitude": -2.0043309,
          "post_code": "WS10 9QU",
          "city": "West Midlands",
          "route": "Wood Green Road",
          "postal_town": "Wednesbury"
        },
        {
          "address": "Davey Road, West-Bromwich, B70 9WU",
          "geocode": true,
          "formatted_address": "Davey Rd, West Bromwich B70 9AP, UK",
          "latitude": 52.5266403,
          "longitude": -2.0144672,
          "post_code": "B70 9AP",
          "city": "West Midlands",
          "route": "Davey Road",
          "postal_town": "West Bromwich"
        },
        {
          "address": "Hydes Road, Wednesbury, West Midlands, WS10 0DR",
          "geocode": true,
          "formatted_address": "Hydes Rd, Wednesbury WS10 0DR, UK",
          "latitude": 52.5478045,
          "longitude": -2.0037056,
          "post_code": "WS10 0DR",
          "city": "West Midlands",
          "route": "Hydes Road",
          "postal_town": "Wednesbury"
        },
        {
          "address": "Castle Drive, Willenhall, West Midlands, WV12 4QZ",
          "geocode": true,
          "formatted_address": "Castle Dr, Willenhall WV12 4QZ, UK",
          "latitude": 52.60066450000001,
          "longitude": -2.0500463,
          "post_code": "WV12 4QZ",
          "city": "West Midlands",
          "route": "Castle Drive",
          "postal_town": "Willenhall"
        },
        {
          "address": "Penn Road, Wolverhampton, West Midlands, WV3 0EG",
          "geocode": true,
          "formatted_address": "Penn Rd, Wolverhampton WV4 4HU, UK",
          "latitude": 52.5723393,
          "longitude": -2.1394584,
          "post_code": "WV4 4HU",
          "city": null,
          "route": "Penn Road",
          "postal_town": "Wolverhampton"
        },
        {
          "address": "Dudley Steet, Bilston, West Midlands, WV14 0LN",
          "geocode": true,
          "formatted_address": "Dudley St, Bilston WV14 0LA, UK",
          "latitude": 52.55949889999999,
          "longitude": -2.07493,
          "post_code": "WV14 0LA",
          "city": "West Midlands",
          "route": "Dudley Street",
          "postal_town": "Bilston"
        }
      ],
      "providerAddress": {
        "inst_code": "1O7",
        "addr_1": "Wood Green Academy",
        "addr_2": "Wood Green Road",
        "addr_3": null,
        "addr_4": "Wednesbury",
        "postcode": "WS10 9QU",
        "url": "http://www.woodgreenacademy.co.uk/",
        "geocode": true,
        "formatted_address": "Wood Green Rd, Wednesbury WS10 9QU, UK",
        "latitude": 52.5635097,
        "longitude": -2.0043309,
        "post_code": "WS10 9QU",
        "city": "West Midlands",
        "route": "Wood Green Road",
        "postal_town": "Wednesbury"
      },
      "options": [
        "PGCE with QTS, full time"
      ]
    },
    {
      "locationType": "School",
      "accrediting": "University of Worcester",
      "provider": "Woodrush Teaching School Alliance",
      "subjects": [
        "English",
        "Secondary"
      ],
      "name": "English",
      "slug": "21T/2ZNX",
      "providerCode": "21T",
      "programmeCode": "2ZNX",
      "schools": [
        {
          "name": "Main Site",
          "address": "Shawhurst Lane, Wythall, Birmingham, West Midlands, B47 5JW",
          "code": "-"
        },
        {
          "name": "Pedmore Technology College and Community School",
          "address": "Grange Lane, Stourbridge, DY9 7HS",
          "code": "B"
        },
        {
          "name": "Hanley Castle High School",
          "address": "Church End, Hanley Castle, Worcester, WR8 0BL",
          "code": "J"
        },
        {
          "name": "Nunnery Wood High School",
          "address": "Spetchley Road, Worcester, WR5 2LT",
          "code": "N"
        }
      ],
      "addresses": [
        {
          "address": "Shawhurst Lane, Wythall, Birmingham, West Midlands, B47 5JW",
          "geocode": true,
          "formatted_address": "Shawhurst Ln, Hollywood, Birmingham B47 5HL, UK",
          "latitude": 52.3884152,
          "longitude": -1.8794684,
          "post_code": "B47 5HL",
          "city": "Hollywood",
          "route": "Shawhurst Lane",
          "postal_town": "Birmingham"
        },
        {
          "address": "Grange Lane, Stourbridge, DY9 7HS",
          "geocode": true,
          "formatted_address": "Stourbridge DY9 7HS, UK",
          "latitude": 52.45006559999999,
          "longitude": -2.126468,
          "post_code": "DY9 7HS",
          "city": "West Midlands",
          "route": null,
          "postal_town": "Stourbridge"
        },
        {
          "address": "Church End, Hanley Castle, Worcester, WR8 0BL",
          "geocode": true,
          "formatted_address": "Hanley Castle, Worcester WR8 0BL, UK",
          "latitude": 52.0767089,
          "longitude": -2.2364753,
          "post_code": "WR8 0BL",
          "city": "Hanley Castle",
          "route": null,
          "postal_town": "Worcester"
        },
        {
          "address": "Spetchley Road, Worcester, WR5 2LT",
          "geocode": true,
          "formatted_address": "Spetchley Rd, Worcester WR5 2LR, UK",
          "latitude": 52.1832272,
          "longitude": -2.1856187,
          "post_code": "WR5 2LR",
          "city": "Worcestershire",
          "route": "Spetchley Road",
          "postal_town": "Worcester"
        }
      ],
      "providerAddress": {
        "inst_code": "21T",
        "addr_1": "Shawhurst Lane",
        "addr_2": "Wythall",
        "addr_3": "Birmingham",
        "addr_4": "West Midlands",
        "postcode": "B47 5JW ",
        "url": "http://www.woodrushtsa.co.uk",
        "geocode": true,
        "formatted_address": "Woodrush Community Hub, Shawhurst Lane, Hollywood, Birmingham B47 5JW, United Kingdom",
        "latitude": 52.3896631,
        "longitude": -1.8784498,
        "post_code": "B47 5JW",
        "city": "Hollywood",
        "route": null,
        "postal_town": "Birmingham"
      },
      "options": [
        "PGCE with QTS, full time"
      ]
    },
    {
      "locationType": "School",
      "accrediting": "Essex Teacher Training",
      "provider": "Eastwood Park Academy Trust",
      "subjects": [
        "English",
        "Secondary"
      ],
      "name": "English",
      "slug": "2G1/372D",
      "providerCode": "2G1",
      "programmeCode": "372D",
      "schools": [
        {
          "name": "Main Site",
          "address": "Rayleigh Road, Leigh-on-Sea, Essex, SS9 5UU",
          "code": "-"
        }
      ],
      "addresses": [
        {
          "address": "Rayleigh Road, Leigh-on-Sea, Essex, SS9 5UU",
          "geocode": true,
          "formatted_address": "Rayleigh Rd, Southend-on-Sea, Leigh-on-Sea SS9 5UU, UK",
          "latitude": 51.56400370000001,
          "longitude": 0.6645165,
          "post_code": "SS9 5UU",
          "city": "Southend-on-Sea",
          "route": "Rayleigh Road",
          "postal_town": "Leigh-on-Sea"
        }
      ],
      "providerAddress": {
        "inst_code": "2G1",
        "addr_1": "Rayleigh Road",
        "addr_2": null,
        "addr_3": "Leigh-on-Sea",
        "addr_4": "Essex",
        "postcode": "SS9 5UU ",
        "url": null,
        "geocode": true,
        "formatted_address": "Rayleigh Rd, Southend-on-Sea, Leigh-on-Sea SS9 5UU, UK",
        "latitude": 51.5698653,
        "longitude": 0.6502648,
        "post_code": "SS9 5UU",
        "city": "Southend-on-Sea",
        "route": "Rayleigh Road",
        "postal_town": "Leigh-on-Sea"
      },
      "options": [
        "PGCE with QTS, full time"
      ]
    },
    {
      "locationType": "School",
      "accrediting": "Canterbury Christ Church University",
      "provider": "Valley Invicta Teaching School Alliance",
      "subjects": [
        "Chemistry",
        "Science",
        "Secondary"
      ],
      "name": "Chemistry",
      "slug": "1CU/2V5S",
      "providerCode": "1CU",
      "programmeCode": "2V5S",
      "schools": [
        {
          "name": "Invicta Grammar School",
          "address": "Huntsman Lane, Maidstone, Kent, ME14 5DS",
          "code": "I"
        },
        {
          "name": "Valley Park School",
          "address": "Huntsman Lane, Maidstone, Kent, ME14 5DT",
          "code": "V"
        }
      ],
      "addresses": [
        {
          "address": "Huntsman Lane, Maidstone, Kent, ME14 5DS",
          "geocode": true,
          "formatted_address": "Huntsman Ln, Maidstone ME14 5DR, UK",
          "latitude": 51.2740024,
          "longitude": 0.535816,
          "post_code": "ME14 5DR",
          "city": "Kent",
          "route": "Huntsman Lane",
          "postal_town": "Maidstone"
        },
        {
          "address": "Huntsman Lane, Maidstone, Kent, ME14 5DT",
          "geocode": true,
          "formatted_address": "Huntsman Ln, Maidstone ME14 5DR, UK",
          "latitude": 51.27420009999999,
          "longitude": 0.5354007,
          "post_code": "ME14 5DR",
          "city": "Kent",
          "route": "Huntsman Lane",
          "postal_town": "Maidstone"
        }
      ],
      "providerAddress": {
        "inst_code": "1CU",
        "addr_1": "Invicta Grammar School",
        "addr_2": "Business Centre",
        "addr_3": "Huntsman Lane, Maidstone",
        "addr_4": "Kent",
        "postcode": "ME14 5DS",
        "url": "http://www.mkla.org.uk",
        "geocode": true,
        "formatted_address": "Huntsman Ln, Maidstone ME14 5DS, UK",
        "latitude": 51.2747336,
        "longitude": 0.5367746,
        "post_code": "ME14 5DS",
        "city": "Kent",
        "route": "Huntsman Lane",
        "postal_town": "Maidstone"
      },
      "options": [
        "QTS, full time with salary"
      ]
    },
    {
      "locationType": "School",
      "accrediting": "University of Worcester",
      "provider": "South Bromsgrove Community High School",
      "subjects": [
        "Mathematics",
        "Secondary"
      ],
      "name": "Mathematics",
      "slug": "19S/23PD",
      "providerCode": "19S",
      "programmeCode": "23PD",
      "schools": [
        {
          "name": "Main Site",
          "address": "Charford Road, Bromsgrove, Worcestershire, B60 3NL",
          "code": "-"
        },
        {
          "name": "Trinity High School",
          "address": "Easemore Road, Redditch, B98 8HB",
          "code": "D"
        }
      ],
      "addresses": [
        {
          "address": "Charford Road, Bromsgrove, Worcestershire, B60 3NL",
          "geocode": true,
          "formatted_address": "Charford Rd, Bromsgrove B60 3NL, UK",
          "latitude": 52.32433589999999,
          "longitude": -2.0623872,
          "post_code": "B60 3NL",
          "city": "Worcestershire",
          "route": "Charford Road",
          "postal_town": "Bromsgrove"
        },
        {
          "address": "Easemore Road, Redditch, B98 8HB",
          "geocode": true,
          "formatted_address": "Easemore Rd, Redditch B98 8HH, UK",
          "latitude": 52.3106354,
          "longitude": -1.9340661,
          "post_code": "B98 8HH",
          "city": "Worcestershire",
          "route": "Easemore Road",
          "postal_town": "Redditch"
        }
      ],
      "providerAddress": {
        "inst_code": "19S",
        "addr_1": "South Bromsgrove High School",
        "addr_2": "Charford Road",
        "addr_3": "Bromsgrove",
        "addr_4": null,
        "postcode": "B60 3NL ",
        "url": "http://www.southbromsgrove.worcs.sch.uk",
        "geocode": true,
        "formatted_address": "Charford Rd, Bromsgrove B60 3NL, UK",
        "latitude": 52.324718,
        "longitude": -2.061353,
        "post_code": "B60 3NL",
        "city": "Worcestershire",
        "route": "Charford Road",
        "postal_town": "Bromsgrove"
      },
      "options": [
        "PGCE with QTS, full time"
      ]
    },
    {
      "locationType": "School",
      "accrediting": "Liverpool John Moores University",
      "provider": "The Heath TSA",
      "subjects": [
        "Religious education",
        "Secondary"
      ],
      "name": "Religious Education",
      "slug": "1DO/2N5S",
      "providerCode": "1DO",
      "programmeCode": "2N5S",
      "schools": [
        {
          "name": "The Heath School",
          "address": "Clifton Road, Runcorn, Cheshire, WA7 4SY",
          "code": "H"
        }
      ],
      "addresses": [
        {
          "address": "Clifton Road, Runcorn, Cheshire, WA7 4SY",
          "geocode": true,
          "formatted_address": "Clifton Rd, Runcorn WA7 4SY, UK",
          "latitude": 53.3241217,
          "longitude": -2.7269768,
          "post_code": "WA7 4SY",
          "city": "Halton",
          "route": "Clifton Road",
          "postal_town": "Runcorn"
        }
      ],
      "providerAddress": {
        "inst_code": "1DO",
        "addr_1": "Clifton Road",
        "addr_2": null,
        "addr_3": null,
        "addr_4": "Runcorn",
        "postcode": "WA7 4SY ",
        "url": "http://www.heathschool.org.uk",
        "geocode": true,
        "formatted_address": "Clifton Rd, Runcorn WA7 4TD, UK",
        "latitude": 53.3232138,
        "longitude": -2.7249196,
        "post_code": "WA7 4TD",
        "city": "Halton",
        "route": "Clifton Road",
        "postal_town": "Runcorn"
      },
      "options": [
        "PGCE with QTS, full time"
      ]
    },
    {
      "locationType": "University",
      "accrediting": null,
      "provider": "Liverpool Hope University",
      "subjects": [
        "Religious education",
        "Secondary"
      ],
      "name": "Religious Education",
      "slug": "L46/V6X9",
      "providerCode": "L46",
      "programmeCode": "V6X9",
      "schools": [
        {
          "name": "Main Site",
          "address": "Hope Park, Liverpool, L16 9JD",
          "code": ""
        }
      ],
      "addresses": [
        {
          "address": "Hope Park, Liverpool, L16 9JD",
          "geocode": true,
          "formatted_address": "Liverpool Hope University College, Taggart Ave, Liverpool L16 9JD, UK",
          "latitude": 53.3908007,
          "longitude": -2.8922988,
          "post_code": "L16 9JD",
          "city": "Merseyside",
          "route": "Taggart Avenue",
          "postal_town": "Liverpool"
        }
      ],
      "providerAddress": {
        "inst_code": "L46",
        "addr_1": "Admissions Office",
        "addr_2": "Hope Park",
        "addr_3": "Liverpool",
        "addr_4": "Merseyside",
        "postcode": "L16 9JD ",
        "url": "http://www.hope.ac.uk",
        "geocode": true,
        "formatted_address": "Liverpool Hope University College, Taggart Ave, Liverpool L16 9JD, UK",
        "latitude": 53.3908007,
        "longitude": -2.8922988,
        "post_code": "L16 9JD",
        "city": "Merseyside",
        "route": "Taggart Avenue",
        "postal_town": "Liverpool"
      },
      "options": [
        "PGCE with QTS, full time"
      ]
    },
    {
      "locationType": "University",
      "accrediting": null,
      "provider": "University of Cambridge",
      "subjects": [
        "Chemistry",
        "Science",
        "Secondary"
      ],
      "name": "Chemistry",
      "slug": "C05/F1X1",
      "providerCode": "C05",
      "programmeCode": "F1X1",
      "schools": [
        {
          "name": "Main Site",
          "address": "Faculty of Education, 184 Hills Road, Cambridge, CB2 2PQ",
          "code": ""
        }
      ],
      "addresses": [
        {
          "address": "Faculty of Education, 184 Hills Road, Cambridge, CB2 2PQ",
          "geocode": true,
          "formatted_address": "184 Hills Rd, Cambridge CB2 8PQ, UK",
          "latitude": 52.1865897,
          "longitude": 0.136219,
          "post_code": "CB2 8PQ",
          "city": "Cambridgeshire",
          "route": "Hills Road",
          "postal_town": "Cambridge"
        }
      ],
      "providerAddress": {
        "inst_code": "C05",
        "addr_1": "184 Hills Road",
        "addr_2": "Cambridge",
        "addr_3": "Cambridgeshire",
        "addr_4": null,
        "postcode": "CB2 8PQ ",
        "url": "http://www.educ.cam.ac.uk/pgce/",
        "geocode": true,
        "formatted_address": "184 Hills Rd, Cambridge CB2 8PQ, UK",
        "latitude": 52.1853999,
        "longitude": 0.1351284,
        "post_code": "CB2 8PQ",
        "city": "Cambridgeshire",
        "route": "Hills Road",
        "postal_town": "Cambridge"
      },
      "options": [
        "PGCE with QTS, full time"
      ]
    },
    {
      "locationType": "School",
      "accrediting": "University of Brighton",
      "provider": "Eastbourne Area School Direct Alliance",
      "subjects": [
        "Art / art & design",
        "Secondary"
      ],
      "name": "Art and Design",
      "slug": "1J5/359P",
      "providerCode": "1J5",
      "programmeCode": "359P",
      "schools": [
        {
          "name": "Ratton School",
          "address": "Park Avenue, Eastbourne, BN21 2XR",
          "code": "T"
        }
      ],
      "addresses": [
        {
          "address": "Park Avenue, Eastbourne, BN21 2XR",
          "geocode": true,
          "formatted_address": "Eastbourne BN21 2XR, UK",
          "latitude": 50.7910163,
          "longitude": 0.2595124,
          "post_code": "BN21 2XR",
          "city": "East Sussex",
          "route": null,
          "postal_town": "Eastbourne"
        }
      ],
      "providerAddress": {
        "inst_code": "1J5",
        "addr_1": "Broad Road",
        "addr_2": "Lower Willingdon",
        "addr_3": null,
        "addr_4": "Eastbourne",
        "postcode": "BN20 9QX",
        "url": "http://www.willingdonschool.org.uk",
        "geocode": true,
        "formatted_address": "Broad Rd, Eastbourne BN20 9QS, UK",
        "latitude": 50.8114363,
        "longitude": 0.2418378,
        "post_code": "BN20 9QS",
        "city": "East Sussex",
        "route": "Broad Road",
        "postal_town": "Eastbourne"
      },
      "options": [
        "PGCE with QTS, full time"
      ]
    },
    {
      "locationType": "School",
      "accrediting": "University of Portsmouth",
      "provider": "TESLA Teaching School Alliance",
      "subjects": [
        "Mathematics",
        "Secondary"
      ],
      "name": "Mathematics",
      "slug": "1DP/32KC",
      "providerCode": "1DP",
      "programmeCode": "32KC",
      "schools": [
        {
          "name": "Secondary School Group",
          "address": "Bohunt School, Longmoor Road, Liphook, Hampshire, GU30 7NY",
          "code": "1"
        }
      ],
      "addresses": [
        {
          "address": "Bohunt School, Longmoor Road, Liphook, Hampshire, GU30 7NY",
          "geocode": true,
          "formatted_address": "Longmoor Rd, Liphook GU30 7NY, UK",
          "latitude": 51.0783327,
          "longitude": -0.8063705,
          "post_code": "GU30 7NY",
          "city": "Hampshire",
          "route": "Longmoor Road",
          "postal_town": "Liphook"
        }
      ],
      "providerAddress": {
        "inst_code": "1DP",
        "addr_1": "Bohunt School",
        "addr_2": "Longmoor Road",
        "addr_3": null,
        "addr_4": "Liphook",
        "postcode": "GU30 7NY",
        "url": "http://WWW.TESLA-TSA.COM",
        "geocode": true,
        "formatted_address": "Longmoor Rd, Liphook GU30 7NY, UK",
        "latitude": 51.0783327,
        "longitude": -0.8063705,
        "post_code": "GU30 7NY",
        "city": "Hampshire",
        "route": "Longmoor Road",
        "postal_town": "Liphook"
      },
      "options": [
        "PGCE with QTS, full time"
      ]
    },
    {
      "locationType": "School",
      "accrediting": "Teach East",
      "provider": "Teach East",
      "subjects": [
        "Physics",
        "Science",
        "Secondary"
      ],
      "name": "Physics",
      "slug": "T11/2ZLT",
      "providerCode": "T11",
      "programmeCode": "2ZLT",
      "schools": [
        {
          "name": "Main Site",
          "address": "Arthur Mellows Village Coll, Helpston Road, Glinton, Peterborough, PE6 7JX",
          "code": "-"
        }
      ],
      "addresses": [
        {
          "address": "Arthur Mellows Village Coll, Helpston Road, Glinton, Peterborough, PE6 7JX",
          "geocode": true,
          "formatted_address": "Helpston Rd, Peterborough PE6 7JX, United Kingdom",
          "latitude": 52.6372602,
          "longitude": -0.3026875000000001,
          "post_code": "PE6 7JX",
          "city": null,
          "route": null,
          "postal_town": "Peterborough"
        }
      ],
      "providerAddress": {
        "inst_code": "T11",
        "addr_1": "Teach East SCITT",
        "addr_2": "Arthur Mellows Village College",
        "addr_3": "Helpston Road, Glinton",
        "addr_4": "Peterborough",
        "postcode": "PE6 7JX ",
        "url": "http://www.teacheast.co.uk",
        "geocode": true,
        "formatted_address": "Helpston Rd, Peterborough PE6 7JX, United Kingdom",
        "latitude": 52.6372602,
        "longitude": -0.3026875000000001,
        "post_code": "PE6 7JX",
        "city": null,
        "route": null,
        "postal_town": "Peterborough"
      },
      "options": [
        "PGCE with QTS, full time"
      ]
    },
    {
      "locationType": "School",
      "accrediting": null,
      "provider": "Gloucestershire Initial Teacher Education Partnership (GITEP)",
      "subjects": [
        "Biology",
        "Science",
        "Secondary"
      ],
      "name": "Biology",
      "slug": "G48/2QW4",
      "providerCode": "G48",
      "programmeCode": "2QW4",
      "schools": [
        {
          "name": "Main Site",
          "address": "St Peter's High School, Stroud Road, Tuffley, Gloucester, GL4 0DE",
          "code": ""
        }
      ],
      "addresses": [
        {
          "address": "St Peter's High School, Stroud Road, Tuffley, Gloucester, GL4 0DE",
          "geocode": true,
          "formatted_address": "Stroud Rd, Tuffley, Gloucester GL4 0DD, UK",
          "latitude": 51.82844069999999,
          "longitude": -2.2448341,
          "post_code": "GL4 0DD",
          "city": "Tuffley",
          "route": "Stroud Road",
          "postal_town": "Gloucester"
        }
      ],
      "providerAddress": {
        "inst_code": "G48",
        "addr_1": "GITEP",
        "addr_2": "Unit 23",
        "addr_3": "The Steadings Business Centre",
        "addr_4": "Maisemore, Gloucester",
        "postcode": "GL2 8EY ",
        "url": "http://www.gitep.org.uk",
        "geocode": true,
        "formatted_address": "Unit 20 The Steadings Business Centre, Gloucester GL2 8EY, United Kingdom",
        "latitude": 51.8929519,
        "longitude": -2.2713547,
        "post_code": "GL2 8EY",
        "city": null,
        "route": null,
        "postal_town": "Gloucester"
      },
      "options": [
        "PGCE with QTS, full time or part time"
      ]
    },
    {
      "locationType": "School",
      "accrediting": "Jewish Teacher Training Partnership",
      "provider": "Yavneh College",
      "subjects": [
        "Religious education",
        "Secondary"
      ],
      "name": "Religious Education",
      "slug": "28T/2S5R",
      "providerCode": "28T",
      "programmeCode": "2S5R",
      "schools": [
        {
          "name": "Main Site",
          "address": "Hillside Avenue, Borehamwood, WD6 1HL",
          "code": "-"
        }
      ],
      "addresses": [
        {
          "address": "Hillside Avenue, Borehamwood, WD6 1HL",
          "geocode": true,
          "formatted_address": "Hillside Ave, Borehamwood WD6 1HH, UK",
          "latitude": 51.6548606,
          "longitude": -0.2673347,
          "post_code": "WD6 1HH",
          "city": "Hertfordshire",
          "route": "Hillside Avenue",
          "postal_town": "Borehamwood"
        }
      ],
      "providerAddress": {
        "inst_code": "28T",
        "addr_1": "Yavneh College",
        "addr_2": "Hillside Avenue",
        "addr_3": null,
        "addr_4": "Borehamwood",
        "postcode": "WD6 1HL ",
        "url": null,
        "geocode": true,
        "formatted_address": "Hillside Ave, Borehamwood WD6 1HL, UK",
        "latitude": 51.6544374,
        "longitude": -0.2662042,
        "post_code": "WD6 1HL",
        "city": "Hertfordshire",
        "route": "Hillside Avenue",
        "postal_town": "Borehamwood"
      },
      "options": [
        "QTS, full time with salary"
      ]
    },
    {
      "locationType": "School",
      "accrediting": null,
      "provider": "North Wiltshire SCITT",
      "subjects": [
        "Chemistry",
        "Science",
        "Secondary"
      ],
      "name": "Chemistry",
      "slug": "24U/2QXB",
      "providerCode": "24U",
      "programmeCode": "2QXB",
      "schools": [
        {
          "name": "Main Site",
          "address": "Lime Kiln, Royal Wootton Bassett, Wiltshire, SN4 7HF",
          "code": "-"
        }
      ],
      "addresses": [
        {
          "address": "Lime Kiln, Royal Wootton Bassett, Wiltshire, SN4 7HF",
          "geocode": true,
          "formatted_address": "Lime Kiln, Royal Wootton Bassett, Swindon SN4 7HF, UK",
          "latitude": 51.5468222,
          "longitude": -1.899207,
          "post_code": "SN4 7HF",
          "city": "Royal Wootton Bassett",
          "route": "Lime Kiln",
          "postal_town": "Swindon"
        }
      ],
      "providerAddress": {
        "inst_code": "24U",
        "addr_1": "North Wiltshire SCITT, TE Centre",
        "addr_2": "RWB Academy, Lime Kiln",
        "addr_3": "Royal Wootton Bassett",
        "addr_4": "Wiltshire",
        "postcode": "SN4 7HG ",
        "url": "http://www.nwscitt.org.uk",
        "geocode": true,
        "formatted_address": "Lime Kiln, Royal Wootton Bassett SN4 7HG, UK",
        "latitude": 51.548056,
        "longitude": -1.902523,
        "post_code": "SN4 7HG",
        "city": "Wiltshire",
        "route": "Lime Kiln",
        "postal_town": "Royal Wootton Bassett"
      },
      "options": [
        "PGCE with QTS, full time"
      ]
    },
    {
      "locationType": "School",
      "accrediting": "Bishop Grosseteste University",
      "provider": "Humber Teaching School",
      "subjects": [
        "English",
        "Secondary"
      ],
      "name": "English",
      "slug": "1ES/2M3V",
      "providerCode": "1ES",
      "programmeCode": "2M3V",
      "schools": [
        {
          "name": "Franklin College",
          "address": "Chelmsford Avenue, Grimsby, DN34 5BY",
          "code": "C"
        }
      ],
      "addresses": [
        {
          "address": "Chelmsford Avenue, Grimsby, DN34 5BY",
          "geocode": true,
          "formatted_address": "Chelmsford Ave, Grimsby DN34 5BY, UK",
          "latitude": 53.5534733,
          "longitude": -0.1062783,
          "post_code": "DN34 5BY",
          "city": "North East Lincolnshire",
          "route": "Chelmsford Avenue",
          "postal_town": "Grimsby"
        }
      ],
      "providerAddress": {
        "inst_code": "1ES",
        "addr_1": "The Humber Teaching School",
        "addr_2": "Low Road",
        "addr_3": "Healing",
        "addr_4": "Grimsby",
        "postcode": "DN41 7QD",
        "url": "http://www.humberteachingschool.co.uk",
        "geocode": true,
        "formatted_address": "Grimsby, UK",
        "latitude": 53.567471,
        "longitude": -0.080784,
        "post_code": null,
        "city": "Grimsby",
        "route": null
      },
      "options": [
        "PGCE with QTS, full time"
      ]
    },
    {
      "locationType": "University",
      "accrediting": null,
      "provider": "Kings College London (University of London)",
      "subjects": [
        "Physics",
        "Science",
        "Secondary"
      ],
      "name": "Science: Physics",
      "slug": "K60/F3X1",
      "providerCode": "K60",
      "programmeCode": "F3X1",
      "schools": [
        {
          "name": "Main Site",
          "address": "Franklin-Wilkins Building, Waterloo Bridge Wing, Waterloo Road, London, SE1 9NN",
          "code": ""
        }
      ],
      "addresses": [
        {
          "address": "Franklin-Wilkins Building, Waterloo Bridge Wing, Waterloo Road, London, SE1 9NN",
          "geocode": true,
          "formatted_address": "Waterloo Rd, South Bank, London SE1, UK",
          "latitude": 51.502334,
          "longitude": -0.1100842,
          "post_code": "SE1",
          "city": "Greater London",
          "route": "Waterloo Road",
          "postal_town": "London"
        }
      ],
      "providerAddress": {
        "inst_code": "K60",
        "addr_1": "King's Admissions Office",
        "addr_2": "James Clerk Maxwell Building",
        "addr_3": null,
        "addr_4": "London",
        "postcode": "SE1 8WA ",
        "url": "http://www.kcl.ac.uk",
        "geocode": true,
        "formatted_address": "57 Waterloo Rd, Lambeth, London SE1 8WA, UK",
        "latitude": 51.50486650000001,
        "longitude": -0.1126887,
        "post_code": "SE1 8WA",
        "city": "Greater London",
        "route": "Waterloo Road",
        "postal_town": "London"
      },
      "options": [
        "PGCE with QTS, full time"
      ]
    },
    {
      "locationType": "School",
      "accrediting": "Middlesex University",
      "provider": "Enfield Teaching School Alliance Southgate",
      "subjects": [
        "Mathematics",
        "Secondary"
      ],
      "name": "Mathematics",
      "slug": "2CX/36N8",
      "providerCode": "2CX",
      "programmeCode": "36N8",
      "schools": [
        {
          "name": "Main Site",
          "address": "Sussex Way, Cockfosters, Barnet, EN4 0BL",
          "code": "-"
        },
        {
          "name": "Enfield Grammar School",
          "address": "Upper School, Market Place, Enfield, EN2 6LN",
          "code": "G"
        }
      ],
      "addresses": [
        {
          "address": "Sussex Way, Cockfosters, Barnet, EN4 0BL",
          "geocode": true,
          "formatted_address": "Sussex Way, Barnet EN4 0BL, UK",
          "latitude": 51.64707740000001,
          "longitude": -0.1407371,
          "post_code": "EN4 0BL",
          "city": "Greater London",
          "route": "Sussex Way",
          "postal_town": "Barnet"
        },
        {
          "address": "Upper School, Market Place, Enfield, EN2 6LN",
          "geocode": true,
          "formatted_address": "Enfield EN2 6LN, UK",
          "latitude": 51.6530042,
          "longitude": -0.0831894,
          "post_code": "EN2 6LN",
          "city": "Greater London",
          "route": null,
          "postal_town": "Enfield"
        }
      ],
      "providerAddress": {
        "inst_code": "2CX",
        "addr_1": "Sussex Way",
        "addr_2": "Cockfosters",
        "addr_3": null,
        "addr_4": "Barnet",
        "postcode": "EN4 0BL ",
        "url": null,
        "geocode": true,
        "formatted_address": "Sussex Way, Barnet EN4 0BQ, UK",
        "latitude": 51.6463717,
        "longitude": -0.1407337,
        "post_code": "EN4 0BQ",
        "city": "Greater London",
        "route": "Sussex Way",
        "postal_town": "Barnet"
      },
      "options": [
        "PGCE with QTS, full time"
      ]
    },
    {
      "locationType": "School",
      "accrediting": "Suffolk and Norfolk Secondary SCITT",
      "provider": "Samuel Ward Academy Trust",
      "subjects": [
        "English",
        "Secondary"
      ],
      "name": "English",
      "slug": "1NT/2Q5D",
      "providerCode": "1NT",
      "programmeCode": "2Q5D",
      "schools": [
        {
          "name": "Main Site",
          "address": "Samuel Ward Academy Trust, Chalkstone Way, Haverhill, CB9 0LD",
          "code": "-"
        }
      ],
      "addresses": [
        {
          "address": "Samuel Ward Academy Trust, Chalkstone Way, Haverhill, CB9 0LD",
          "geocode": true,
          "formatted_address": "Chalkstone Way, Haverhill CB9 0LD, UK",
          "latitude": 52.0893318,
          "longitude": 0.4474226,
          "post_code": "CB9 0LD",
          "city": "Suffolk",
          "route": "Chalkstone Way",
          "postal_town": "Haverhill"
        }
      ],
      "providerAddress": {
        "inst_code": "1NT",
        "addr_1": "Samuel Ward Academy",
        "addr_2": "Suffolk Borders Teaching Alliance",
        "addr_3": "Wells Hall Road",
        "addr_4": "Sudbury ",
        "postcode": "CO10 0NH",
        "url": "http://www.sbtalliance.co.uk/",
        "geocode": true,
        "formatted_address": "Chalkstone Way, Haverhill CB9 0LD, UK",
        "latitude": 52.0893318,
        "longitude": 0.4474226,
        "post_code": "CB9 0LD",
        "city": "Suffolk",
        "route": "Chalkstone Way",
        "postal_town": "Haverhill"
      },
      "options": [
        "PGCE with QTS, full time with salary"
      ]
    },
    {
      "locationType": "School",
      "accrediting": "Leeds Trinity University",
      "provider": "The Rodillian MAT Training Alliance",
      "subjects": [
        "English",
        "Secondary"
      ],
      "name": "English",
      "slug": "2DS/2ZF7",
      "providerCode": "2DS",
      "programmeCode": "2ZF7",
      "schools": [
        {
          "name": "Main Site",
          "address": "Longthorpe Lane, Lofthouse, Wakefield, WF3 3PS",
          "code": "-"
        }
      ],
      "addresses": [
        {
          "address": "Longthorpe Lane, Lofthouse, Wakefield, WF3 3PS",
          "geocode": true,
          "formatted_address": "Longthorpe, Peterborough PE3 6SE, UK",
          "latitude": 52.568126,
          "longitude": -0.290611,
          "post_code": "PE3 6SE",
          "city": "Longthorpe",
          "route": null,
          "postal_town": "Peterborough"
        }
      ],
      "providerAddress": {
        "inst_code": "2DS",
        "addr_1": "Longthorpe Lane",
        "addr_2": "Lofthouse",
        "addr_3": null,
        "addr_4": "Wakefield",
        "postcode": "WF3 3PS ",
        "url": "http://www.rodillianacademytrust.co.uk",
        "geocode": true,
        "formatted_address": "Long Thorpe Ln, Lofthouse, Wakefield WF3 3PS, UK",
        "latitude": 53.73006520000001,
        "longitude": -1.5018597,
        "post_code": "WF3 3PS",
        "city": "Lofthouse",
        "route": "Long Thorpe Lane",
        "postal_town": "Wakefield"
      },
      "options": [
        "PGCE with QTS, full time"
      ]
    },
    {
      "locationType": "School",
      "accrediting": "The Bedfordshire Schools Training Partnership",
      "provider": "Luton Futures",
      "subjects": [
        "Chemistry",
        "Science",
        "Secondary"
      ],
      "name": "Chemistry",
      "slug": "1JG/2KKV",
      "providerCode": "1JG",
      "programmeCode": "2KKV",
      "schools": [
        {
          "name": "Main Site",
          "address": "Crawley Green Road, Luton, LU2 9AG",
          "code": "-"
        }
      ],
      "addresses": [
        {
          "address": "Crawley Green Road, Luton, LU2 9AG",
          "geocode": true,
          "formatted_address": "Crawley Green Rd, Luton LU2 9AG, UK",
          "latitude": 51.8899878,
          "longitude": -0.3837606,
          "post_code": "LU2 9AG",
          "city": "Luton",
          "route": "Crawley Green Road",
          "postal_town": "Luton"
        }
      ],
      "providerAddress": {
        "inst_code": "1JG",
        "addr_1": "Ashcroft High School",
        "addr_2": "Crawley Green Road",
        "addr_3": null,
        "addr_4": "Luton",
        "postcode": "LU2 9AG ",
        "url": "http://www.lutonfutures.co.uk/",
        "geocode": true,
        "formatted_address": "Crawley Green Rd, Luton LU2 9AG, UK",
        "latitude": 51.8910455,
        "longitude": -0.3834509,
        "post_code": "LU2 9AG",
        "city": "Bedford",
        "route": "Crawley Green Road",
        "postal_town": "Luton"
      },
      "options": [
        "QTS, full time with salary"
      ]
    },
    {
      "locationType": "University",
      "accrediting": null,
      "provider": "The University of Gloucestershire",
      "subjects": [
        "Primary"
      ],
      "name": "Primary Key Stage 1 and 2",
      "slug": "G50/X100",
      "providerCode": "G50",
      "programmeCode": "X100",
      "schools": [
        {
          "name": "Cheltenham Campus",
          "address": "Francis Close Hall, Swindon Road, Cheltenham, Gloucestershire, GL50 4AZ",
          "code": "C"
        }
      ],
      "addresses": [
        {
          "address": "Francis Close Hall, Swindon Road, Cheltenham, Gloucestershire, GL50 4AZ",
          "geocode": true,
          "formatted_address": "Cheltenham GL50 4BD, UK",
          "latitude": 51.905502,
          "longitude": -2.08088,
          "post_code": "GL50 4BD",
          "city": "Gloucestershire",
          "route": null,
          "postal_town": "Cheltenham"
        }
      ],
      "providerAddress": {
        "inst_code": "G50",
        "addr_1": "University of Gloucestershire",
        "addr_2": "Pittville Campus",
        "addr_3": "Cheltenham",
        "addr_4": "Gloucestershire",
        "postcode": "GL52 3JG",
        "url": "http://www.glos.ac.uk",
        "geocode": true,
        "formatted_address": "56 Swindon Rd, Cheltenham GL50 4AZ, UK",
        "latitude": 51.9061374,
        "longitude": -2.079428,
        "post_code": "GL50 4AZ",
        "city": "Gloucestershire",
        "route": "Swindon Road",
        "postal_town": "Cheltenham"
      },
      "options": [
        "PGCE with QTS, full time"
      ]
    },
    {
      "locationType": "School",
      "accrediting": "The University of Reading",
      "provider": "Two Counties",
      "subjects": [
        "English",
        "Secondary"
      ],
      "name": "English",
      "slug": "26Q/2R2R",
      "providerCode": "26Q",
      "programmeCode": "2R2R",
      "schools": [
        {
          "name": "Main Site",
          "address": "School Lane, Burghfield Common, Reading, RG7 3XJ",
          "code": "-"
        },
        {
          "name": "The Hurst Community College",
          "address": "Brimpton Road, Baughurst, Tadley, Berkshire, RG26 5NL",
          "code": "H"
        },
        {
          "name": "Little Heath School",
          "address": "Little Heath Rd, Reading, RG31 5TY",
          "code": "L"
        },
        {
          "name": "Theale Green School",
          "address": "Church Street, Theale, Berkshire, RG7 5DA",
          "code": "T"
        }
      ],
      "addresses": [
        {
          "address": "School Lane, Burghfield Common, Reading, RG7 3XJ",
          "geocode": true,
          "formatted_address": "Reading RG7 3XJ, UK",
          "latitude": 51.3964396,
          "longitude": -1.0704442,
          "post_code": "RG7 3XJ",
          "city": "West Berkshire",
          "route": null,
          "postal_town": "Reading"
        },
        {
          "address": "Brimpton Road, Baughurst, Tadley, Berkshire, RG26 5NL",
          "geocode": true,
          "formatted_address": "Brimpton Rd, Midgham, Tadley RG26 5NL, UK",
          "latitude": 51.35743369999999,
          "longitude": -1.1758071,
          "post_code": "RG26 5NL",
          "city": "Midgham",
          "route": "Brimpton Road",
          "postal_town": "Tadley"
        },
        {
          "address": "Little Heath Rd, Reading, RG31 5TY",
          "geocode": true,
          "formatted_address": "Little Heath Rd, Reading RG31 5TY, UK",
          "latitude": 51.4574772,
          "longitude": -1.0570573,
          "post_code": "RG31 5TY",
          "city": "West Berkshire",
          "route": "Little Heath Road",
          "postal_town": "Reading"
        },
        {
          "address": "Church Street, Theale, Berkshire, RG7 5DA",
          "geocode": true,
          "formatted_address": "Reading RG7 5DA, UK",
          "latitude": 51.4365596,
          "longitude": -1.0862468,
          "post_code": "RG7 5DA",
          "city": "West Berkshire",
          "route": null,
          "postal_town": "Reading"
        }
      ],
      "providerAddress": {
        "inst_code": "26Q",
        "addr_1": "The Willink School",
        "addr_2": "School Lane",
        "addr_3": "Burghfield Common, Reading",
        "addr_4": "Berkshire",
        "postcode": "RG7 3XJ ",
        "url": "http://www.willinkschool.org.uk",
        "geocode": true,
        "formatted_address": "School Ln, Burghfield Common, Reading RG7 3XJ, UK",
        "latitude": 51.3966748,
        "longitude": -1.069333,
        "post_code": "RG7 3XJ",
        "city": "Burghfield Common",
        "route": "School Lane",
        "postal_town": "Reading"
      },
      "options": [
        "PGCE with QTS, full time"
      ]
    },
    {
      "locationType": "School",
      "accrediting": "Suffolk and Norfolk Secondary SCITT",
      "provider": "Claydon High School",
      "subjects": [
        "Art / art & design",
        "Secondary"
      ],
      "name": "Art & Design",
      "slug": "2GU/366T",
      "providerCode": "2GU",
      "programmeCode": "366T",
      "schools": [
        {
          "name": "Main Site",
          "address": "Church Lane, Claydon, Ipswich, Suffolk, IP6 0EG",
          "code": "-"
        }
      ],
      "addresses": [
        {
          "address": "Church Lane, Claydon, Ipswich, Suffolk, IP6 0EG",
          "geocode": true,
          "formatted_address": "Claydon, Ipswich IP6 0EG, UK",
          "latitude": 52.1064306,
          "longitude": 1.115769,
          "post_code": "IP6 0EG",
          "city": "Claydon",
          "route": null,
          "postal_town": "Ipswich"
        }
      ],
      "providerAddress": {
        "inst_code": "2GU",
        "addr_1": "Claydon High School",
        "addr_2": "Church Lane, Claydon",
        "addr_3": "Ipswich",
        "addr_4": "Suffolk",
        "postcode": "IP6 0EG ",
        "url": null,
        "geocode": true,
        "formatted_address": "Church Ln, Claydon, Ipswich IP6 0EG, UK",
        "latitude": 52.1064061,
        "longitude": 1.1157683,
        "post_code": "IP6 0EG",
        "city": "Claydon",
        "route": "Church Lane",
        "postal_town": "Ipswich"
      },
      "options": [
        "PGCE with QTS, full time"
      ]
    },
    {
      "locationType": "School",
      "accrediting": null,
      "provider": "Tudor Grange SCITT",
      "subjects": [
        "History",
        "Secondary"
      ],
      "name": "History",
      "slug": "T87/V11X",
      "providerCode": "T87",
      "programmeCode": "V11X",
      "schools": [
        {
          "name": "Main Site",
          "address": "Tudor Grange Academy, Dingle Lane, Solihull, United Kingdom, B91 3PD",
          "code": "A"
        }
      ],
      "addresses": [
        {
          "address": "Tudor Grange Academy, Dingle Lane, Solihull, United Kingdom, B91 3PD",
          "geocode": true,
          "formatted_address": "Dingle Ln, Solihull B91 3PD, UK",
          "latitude": 52.404461,
          "longitude": -1.79326,
          "post_code": "B91 3PD",
          "city": "West Midlands",
          "route": "Dingle Lane",
          "postal_town": "Solihull"
        }
      ],
      "providerAddress": {
        "inst_code": "T87",
        "addr_1": "Dingle Lane",
        "addr_2": "Solihull",
        "addr_3": null,
        "addr_4": "West Midlands",
        "postcode": "B91 3PD ",
        "url": "http://teachingschool.tgacademy.org.uk/teacher-training/",
        "geocode": true,
        "formatted_address": "Dingle Ln, Solihull B91 3NG, UK",
        "latitude": 52.4044281,
        "longitude": -1.7966122,
        "post_code": "B91 3NG",
        "city": "West Midlands",
        "route": "Dingle Lane",
        "postal_town": "Solihull"
      },
      "options": [
        "QTS, full time"
      ]
    },
    {
      "locationType": "School",
      "accrediting": "UCL, University College London (University of London",
      "provider": "The St Marylebone CofE School",
      "subjects": [
        "Religious education",
        "Secondary"
      ],
      "name": "Religious Education",
      "slug": "1ET/376B",
      "providerCode": "1ET",
      "programmeCode": "376B",
      "schools": [
        {
          "name": "The Green School",
          "address": "Busch Corner, London Road, Isleworth, Middlesex, TW7 5BB",
          "code": "G"
        }
      ],
      "addresses": [
        {
          "address": "Busch Corner, London Road, Isleworth, Middlesex, TW7 5BB",
          "geocode": true,
          "formatted_address": "148 London Rd, Hounslow, Isleworth TW7 5BG, UK",
          "latitude": 51.47889180000001,
          "longitude": -0.3227723,
          "post_code": "TW7 5BG",
          "city": "Hounslow",
          "route": "London Road",
          "postal_town": "Isleworth"
        }
      ],
      "providerAddress": {
        "inst_code": "1ET",
        "addr_1": "64 Marylebone High Street",
        "addr_2": null,
        "addr_3": null,
        "addr_4": "London",
        "postcode": "W1U 5BA ",
        "url": "http://www.stmaryleboneschool.com",
        "geocode": true,
        "formatted_address": "64 Marylebone High St, Marylebone, London W1U 5BA, UK",
        "latitude": 51.5221787,
        "longitude": -0.1518985,
        "post_code": "W1U 5BA",
        "city": "Greater London",
        "route": "Marylebone High Street",
        "postal_town": "London"
      },
      "options": [
        "QTS, full time"
      ]
    },
    {
      "locationType": "School",
      "accrediting": "Canterbury Christ Church University",
      "provider": "Valley Invicta Teaching School Alliance",
      "subjects": [
        "History",
        "Secondary"
      ],
      "name": "History",
      "slug": "1CU/33CY",
      "providerCode": "1CU",
      "programmeCode": "33CY",
      "schools": [
        {
          "name": "Aylesford Sports College",
          "address": "Teapot Lane, Aylesford, Kent, ME20 7JU",
          "code": "A"
        }
      ],
      "addresses": [
        {
          "address": "Teapot Lane, Aylesford, Kent, ME20 7JU",
          "geocode": true,
          "formatted_address": "Teapot Ln, Aylesford ME20 7JX, UK",
          "latitude": 51.2981956,
          "longitude": 0.4659717,
          "post_code": "ME20 7JX",
          "city": "Kent",
          "route": "Teapot Lane",
          "postal_town": "Aylesford"
        }
      ],
      "providerAddress": {
        "inst_code": "1CU",
        "addr_1": "Invicta Grammar School",
        "addr_2": "Business Centre",
        "addr_3": "Huntsman Lane, Maidstone",
        "addr_4": "Kent",
        "postcode": "ME14 5DS",
        "url": "http://www.mkla.org.uk",
        "geocode": true,
        "formatted_address": "Huntsman Ln, Maidstone ME14 5DS, UK",
        "latitude": 51.2747336,
        "longitude": 0.5367746,
        "post_code": "ME14 5DS",
        "city": "Kent",
        "route": "Huntsman Lane",
        "postal_town": "Maidstone"
      },
      "options": [
        "QTS, full time"
      ]
    },
    {
      "locationType": "School",
      "accrediting": null,
      "provider": "Partnership London SCITT (PLS)",
      "subjects": [
        "Music",
        "Secondary"
      ],
      "name": "Music",
      "slug": "2B1/2TJC",
      "providerCode": "2B1",
      "programmeCode": "2TJC",
      "schools": [
        {
          "name": "Main Site",
          "address": "Sydney Russell School, Parsloes Avenue, Dagenham, Essex, RM9 5QT",
          "code": "-"
        }
      ],
      "addresses": [
        {
          "address": "Sydney Russell School, Parsloes Avenue, Dagenham, Essex, RM9 5QT",
          "geocode": true,
          "formatted_address": "Parsloes Avenue, Parsloes Ave, Dagenham RM9 5QT, United Kingdom",
          "latitude": 51.548375,
          "longitude": 0.1331319,
          "post_code": "RM9 5QT",
          "city": null,
          "route": "Parsloes Avenue",
          "postal_town": "Dagenham"
        }
      ],
      "providerAddress": {
        "inst_code": "2B1",
        "addr_1": "Sydney Russell School",
        "addr_2": "Parsloes Avenue",
        "addr_3": "Dagenham",
        "addr_4": "Essex",
        "postcode": "RM9 5QT ",
        "url": "http://partnershiplondonscitt.com",
        "geocode": true,
        "formatted_address": "Parsloes Avenue, Parsloes Ave, Dagenham RM9 5QT, United Kingdom",
        "latitude": 51.548375,
        "longitude": 0.1331319,
        "post_code": "RM9 5QT",
        "city": null,
        "route": "Parsloes Avenue",
        "postal_town": "Dagenham"
      },
      "options": [
        "PGCE with QTS, full time"
      ]
    },
    {
      "locationType": "University",
      "accrediting": null,
      "provider": "Brunel University London",
      "subjects": [
        "Biology",
        "Science",
        "Secondary"
      ],
      "name": "Science with Biology",
      "slug": "B84/C1X1",
      "providerCode": "B84",
      "programmeCode": "C1X1",
      "schools": [
        {
          "name": "Main Site",
          "address": "Kingston Lane, Uxbridge, Middlesex, UB8 3PH",
          "code": ""
        }
      ],
      "addresses": [
        {
          "address": "Kingston Lane, Uxbridge, Middlesex, UB8 3PH",
          "geocode": true,
          "formatted_address": "Kingston Ln, Uxbridge UB8 3PN, UK",
          "latitude": 51.5320767,
          "longitude": -0.4665542,
          "post_code": "UB8 3PN",
          "city": "Greater London",
          "route": "Kingston Lane",
          "postal_town": "Uxbridge"
        }
      ],
      "providerAddress": {
        "inst_code": "B84",
        "addr_1": "Brunel University",
        "addr_2": "Kingston Lane",
        "addr_3": "Uxbridge",
        "addr_4": "Middlesex",
        "postcode": "UB8 3PH ",
        "url": "http://www.brunel.ac.uk",
        "geocode": true,
        "formatted_address": "Kingston Ln, London, Uxbridge UB8 3PH, UK",
        "latitude": 51.5328677,
        "longitude": -0.471229,
        "post_code": "UB8 3PH",
        "city": "London",
        "route": "Kingston Lane",
        "postal_town": "Uxbridge"
      },
      "options": [
        "PGCE with QTS, full time"
      ]
    },
    {
      "locationType": "School",
      "accrediting": "University of Brighton",
      "provider": "Valley Invicta Teaching School Alliance",
      "subjects": [
        "Secondary"
      ],
      "name": "MFL",
      "slug": "1CU/37YM",
      "providerCode": "1CU",
      "programmeCode": "37YM",
      "schools": [
        {
          "name": "Homewood School",
          "address": "Ashford Road, Tenterden, Kent, TN30 6LT",
          "code": "E"
        }
      ],
      "addresses": [
        {
          "address": "Ashford Road, Tenterden, Kent, TN30 6LT",
          "geocode": true,
          "formatted_address": "Ashford Rd, Tenterden TN30 6LT, UK",
          "latitude": 51.0766212,
          "longitude": 0.6943935999999999,
          "post_code": "TN30 6LT",
          "city": "Kent",
          "route": "Ashford Road",
          "postal_town": "Tenterden"
        }
      ],
      "providerAddress": {
        "inst_code": "1CU",
        "addr_1": "Invicta Grammar School",
        "addr_2": "Business Centre",
        "addr_3": "Huntsman Lane, Maidstone",
        "addr_4": "Kent",
        "postcode": "ME14 5DS",
        "url": "http://www.mkla.org.uk",
        "geocode": true,
        "formatted_address": "Huntsman Ln, Maidstone ME14 5DS, UK",
        "latitude": 51.2747336,
        "longitude": 0.5367746,
        "post_code": "ME14 5DS",
        "city": "Kent",
        "route": "Huntsman Lane",
        "postal_town": "Maidstone"
      },
      "options": [
        "QTS, full time"
      ]
    },
    {
      "locationType": "School",
      "accrediting": "Nottingham Trent University",
      "provider": "Redhill Teaching School Alliance",
      "subjects": [
        "Computer studies",
        "Secondary"
      ],
      "name": "Computing",
      "slug": "1EY/2G77",
      "providerCode": "1EY",
      "programmeCode": "2G77",
      "schools": [
        {
          "name": "Main Site",
          "address": "Redhill Road, Arnold, Nottingham, NG5 8GX",
          "code": "-"
        }
      ],
      "addresses": [
        {
          "address": "Redhill Road, Arnold, Nottingham, NG5 8GX",
          "geocode": true,
          "formatted_address": "Redhill Rd, Arnold, Nottingham NG5 8GX, UK",
          "latitude": 53.0100285,
          "longitude": -1.1305789,
          "post_code": "NG5 8GX",
          "city": "Arnold",
          "route": "Redhill Road",
          "postal_town": "Nottingham"
        }
      ],
      "providerAddress": {
        "inst_code": "1EY",
        "addr_1": "The Redhill Academy",
        "addr_2": "Redhill Road",
        "addr_3": "Arnold",
        "addr_4": "Nottingham",
        "postcode": "NG5 8GX ",
        "url": "http://www.redhilltsa.org.uk",
        "geocode": true,
        "formatted_address": "Redhill Rd, Arnold NG5 8GX, UK",
        "latitude": 53.0092265,
        "longitude": -1.1303503,
        "post_code": "NG5 8GX",
        "city": "Nottinghamshire",
        "route": "Redhill Road",
        "postal_town": "Arnold"
      },
      "options": [
        "PGCE with QTS, full time"
      ]
    },
    {
      "locationType": "School",
      "accrediting": "UCL, University College London (University of London",
      "provider": "Chingford Academies Trust",
      "subjects": [
        "Geography",
        "Secondary"
      ],
      "name": "Geography",
      "slug": "23T/2JLP",
      "providerCode": "23T",
      "programmeCode": "2JLP",
      "schools": [
        {
          "name": "Main Site",
          "address": "Nevin Drive, Chingford, London, E4 7LT",
          "code": "-"
        }
      ],
      "addresses": [
        {
          "address": "Nevin Drive, Chingford, London, E4 7LT",
          "geocode": true,
          "formatted_address": "Nevin Dr, London E4 7LH, UK",
          "latitude": 51.6288877,
          "longitude": -0.007628899999999999,
          "post_code": "E4 7LH",
          "city": "Greater London",
          "route": "Nevin Drive",
          "postal_town": "London"
        }
      ],
      "providerAddress": {
        "inst_code": "23T",
        "addr_1": "Chingford Foundation School",
        "addr_2": "Nevin Drive",
        "addr_3": "Chingford",
        "addr_4": "London",
        "postcode": "E4 7LT  ",
        "url": "http://chingfordfoundation.org",
        "geocode": true,
        "formatted_address": "31 Nevin Dr, London E4 7LT, UK",
        "latitude": 51.6291664,
        "longitude": -0.0083973,
        "post_code": "E4 7LT",
        "city": "Greater London",
        "route": "Nevin Drive",
        "postal_town": "London"
      },
      "options": [
        "QTS, full time with salary"
      ]
    },
    {
      "locationType": "School",
      "accrediting": "St Mary's University, Twickenham",
      "provider": "Ealing Teaching School Alliance",
      "subjects": [
        "Languages",
        "Secondary"
      ],
      "name": "Modern Languages",
      "slug": "1KV/37MP",
      "providerCode": "1KV",
      "programmeCode": "37MP",
      "schools": [
        {
          "name": "Villiers High School",
          "address": "Boyd Avenue, Southall, UB1 3BT",
          "code": "V"
        }
      ],
      "addresses": [
        {
          "address": "Boyd Avenue, Southall, UB1 3BT",
          "geocode": true,
          "formatted_address": "Boyd Ave, Southall UB1 3BT, UK",
          "latitude": 51.5101624,
          "longitude": -0.3733452,
          "post_code": "UB1 3BT",
          "city": "Greater London",
          "route": "Boyd Avenue",
          "postal_town": "Southall"
        }
      ],
      "providerAddress": {
        "inst_code": "1KV",
        "addr_1": "Twyford Crescent",
        "addr_2": null,
        "addr_3": "Acton",
        "addr_4": "London",
        "postcode": "W3 9PP  ",
        "url": null,
        "geocode": true,
        "formatted_address": "Twyford Cres, London W3 9PP, UK",
        "latitude": 51.5089583,
        "longitude": -0.2810741,
        "post_code": "W3 9PP",
        "city": "Greater London",
        "route": "Twyford Crescent",
        "postal_town": "London"
      },
      "options": [
        "PGCE with QTS, full time"
      ]
    },
    {
      "locationType": "School",
      "accrediting": "University of Newcastle Upon Tyne",
      "provider": "St Thomas More Catholic School",
      "subjects": [
        "Physics",
        "Science",
        "Secondary"
      ],
      "name": "Physics",
      "slug": "1OO/28FP",
      "providerCode": "1OO",
      "programmeCode": "28FP",
      "schools": [
        {
          "name": "Heworth Grange School",
          "address": "High Lanes, Heworth, NE10 0PT",
          "code": "C"
        }
      ],
      "addresses": [
        {
          "address": "High Lanes, Heworth, NE10 0PT",
          "geocode": true,
          "formatted_address": "High Lanes, Gateshead NE10 0PD, UK",
          "latitude": 54.9470247,
          "longitude": -1.5518129,
          "post_code": "NE10 0PD",
          "city": "Tyne and Wear",
          "route": "High Lanes",
          "postal_town": "Gateshead"
        }
      ],
      "providerAddress": {
        "inst_code": "1OO",
        "addr_1": "Croftdale Road",
        "addr_2": null,
        "addr_3": "Blaydon-upon-Tyne",
        "addr_4": null,
        "postcode": "NE21 4BQ",
        "url": "http://www.northernlightstsa.com",
        "geocode": true,
        "formatted_address": "Croftdale Rd, Blaydon-on-Tyne NE21 4BG, UK",
        "latitude": 54.96123739999999,
        "longitude": -1.7204164,
        "post_code": "NE21 4BG",
        "city": "Tyne and Wear",
        "route": "Croftdale Road",
        "postal_town": "Blaydon-on-Tyne"
      },
      "options": [
        "PGCE with QTS, full time"
      ]
    },
    {
      "locationType": "School",
      "accrediting": "University of Winchester",
      "provider": "Halterworth Teaching School Partnership",
      "subjects": [
        "Chemistry",
        "Science",
        "Secondary"
      ],
      "name": "Chemistry",
      "slug": "1A8/3726",
      "providerCode": "1A8",
      "programmeCode": "3726",
      "schools": [
        {
          "name": "The Romsey School",
          "address": "Greatbridge Road, Romsey, Hants, SO518ZB",
          "code": "U"
        },
        {
          "name": "The Mountbatten School",
          "address": "Whitenap Lane, Romsey, Hants, SO515SY",
          "code": "V"
        },
        {
          "name": "Barton Peveril Sixth Form College",
          "address": "Chestnut Avenue, Eastleigh, Hants, SO515ZA",
          "code": "W"
        }
      ],
      "addresses": [
        {
          "address": "Greatbridge Road, Romsey, Hants, SO518ZB",
          "geocode": true,
          "formatted_address": "Greatbridge Rd, Romsey SO51 0AD, UK",
          "latitude": 50.9999033,
          "longitude": -1.4981101,
          "post_code": "SO51 0AD",
          "city": "Hampshire",
          "route": "Greatbridge Road",
          "postal_town": "Romsey"
        },
        {
          "address": "Whitenap Lane, Romsey, Hants, SO515SY",
          "geocode": true,
          "formatted_address": "Whitenap Ln, Romsey SO51 5SY, UK",
          "latitude": 50.9844265,
          "longitude": -1.4700714,
          "post_code": "SO51 5SY",
          "city": "Hampshire",
          "route": "Whitenap Lane",
          "postal_town": "Romsey"
        },
        {
          "address": "Chestnut Avenue, Eastleigh, Hants, SO515ZA",
          "geocode": true,
          "formatted_address": "Chestnut Ave, Eastleigh, UK",
          "latitude": 50.9613509,
          "longitude": -1.3704344,
          "post_code": null,
          "city": "Hampshire",
          "route": "Chestnut Avenue",
          "postal_town": "Eastleigh"
        }
      ],
      "providerAddress": {
        "inst_code": "1A8",
        "addr_1": "Halterworth Primary School",
        "addr_2": "Halterworth Lane",
        "addr_3": "Romsey",
        "addr_4": "Hampshire",
        "postcode": "SO519AD ",
        "url": "http://www.halterworthtsp.co.uk",
        "geocode": true,
        "formatted_address": "Halterworth Ln, Romsey SO51 9AD, UK",
        "latitude": 50.98831269999999,
        "longitude": -1.4701858,
        "post_code": "SO51 9AD",
        "city": "Hampshire",
        "route": "Halterworth Lane",
        "postal_town": "Romsey"
      },
      "options": [
        "PGCE with QTS, full time"
      ]
    },
    {
      "locationType": "School",
      "accrediting": "Kingston University",
      "provider": "Latchmere Teaching School Alliance",
      "subjects": [
        "Primary"
      ],
      "name": "Primary",
      "slug": "1LZ/2YB4",
      "providerCode": "1LZ",
      "programmeCode": "2YB4",
      "schools": [
        {
          "name": "Latchmere School",
          "address": "Latchmere Road, KT2 5TT",
          "code": "K"
        }
      ],
      "addresses": [
        {
          "address": "Latchmere Road, KT2 5TT",
          "geocode": true,
          "formatted_address": "Latchmere Rd, Kingston upon Thames KT2 5TT, UK",
          "latitude": 51.4222323,
          "longitude": -0.2966321,
          "post_code": "KT2 5TT",
          "city": "Greater London",
          "route": "Latchmere Road",
          "postal_town": "Kingston upon Thames"
        }
      ],
      "providerAddress": {
        "inst_code": "1LZ",
        "addr_1": "Latchmere School",
        "addr_2": "Latchmere Road",
        "addr_3": null,
        "addr_4": "Kingston upon Thames",
        "postcode": "KT2 5TT ",
        "url": "http://www.latchmereschool.org",
        "geocode": true,
        "formatted_address": "Latchmere Rd, Kingston upon Thames KT2 5TT, UK",
        "latitude": 51.4225922,
        "longitude": -0.294416,
        "post_code": "KT2 5TT",
        "city": "Greater London",
        "route": "Latchmere Road",
        "postal_town": "Kingston upon Thames"
      },
      "options": [
        "QTS, full time with salary"
      ]
    },
    {
      "locationType": "School",
      "accrediting": "Canterbury Christ Church University",
      "provider": "Dover Deal Sandwich Partnership",
      "subjects": [
        "French",
        "Secondary"
      ],
      "name": "French",
      "slug": "1CG/376Y",
      "providerCode": "1CG",
      "programmeCode": "376Y",
      "schools": [
        {
          "name": "Dover Christ Church Academy",
          "address": "Melbourne Avenue, Whitfield, Dover, CT16 2EG",
          "code": "2"
        },
        {
          "name": "Dover Grammar School for Boys",
          "address": "Astor Avenue, Dover, Kent, CT17 0DQ",
          "code": "3"
        },
        {
          "name": "Astor College",
          "address": "Astor Avenue, Dover, Kent, CT17 0AS",
          "code": "T"
        }
      ],
      "addresses": [
        {
          "address": "Melbourne Avenue, Whitfield, Dover, CT16 2EG",
          "geocode": true,
          "formatted_address": "Dover CT16 2EG, UK",
          "latitude": 51.1503928,
          "longitude": 1.3001226,
          "post_code": "CT16 2EG",
          "city": "Kent",
          "route": null,
          "postal_town": "Dover"
        },
        {
          "address": "Astor Avenue, Dover, Kent, CT17 0DQ",
          "geocode": true,
          "formatted_address": "Astor Ave, Dover CT17 0AU, UK",
          "latitude": 51.1278302,
          "longitude": 1.2965093,
          "post_code": "CT17 0AU",
          "city": "Kent",
          "route": "Astor Avenue",
          "postal_town": "Dover"
        },
        {
          "address": "Astor Avenue, Dover, Kent, CT17 0AS",
          "geocode": true,
          "formatted_address": "Astor Ave, Dover CT17 0AU, UK",
          "latitude": 51.1278302,
          "longitude": 1.2965093,
          "post_code": "CT17 0AU",
          "city": "Kent",
          "route": "Astor Avenue",
          "postal_town": "Dover"
        }
      ],
      "providerAddress": {
        "inst_code": "1CG",
        "addr_1": "Dover Deal Sandwich Partnership",
        "addr_2": "Sandwich Technology School",
        "addr_3": "Deal Road",
        "addr_4": "Sandwich",
        "postcode": "CT13 0FA",
        "url": null,
        "geocode": true,
        "formatted_address": "Deal Rd, Sandwich CT13 0FA, UK",
        "latitude": 51.265011,
        "longitude": 1.335203,
        "post_code": "CT13 0FA",
        "city": "Kent",
        "route": "Deal Road",
        "postal_town": "Sandwich"
      },
      "options": [
        "QTS, full time"
      ]
    },
    {
      "locationType": "School",
      "accrediting": "Canterbury Christ Church University",
      "provider": "Academies Enterprise Trust & Tendring Teaching School Alliance: Eastern",
      "subjects": [
        "Geography",
        "Secondary"
      ],
      "name": "Geography",
      "slug": "2CG/2Z4L",
      "providerCode": "2CG",
      "programmeCode": "2Z4L",
      "schools": [
        {
          "name": "Bexleyheath Academy",
          "address": "Woolwich Road, Bexleyheath, DA6 7DA",
          "code": "B"
        }
      ],
      "addresses": [
        {
          "address": "Woolwich Road, Bexleyheath, DA6 7DA",
          "geocode": true,
          "formatted_address": "Woolwich Rd, United Kingdom",
          "latitude": 51.464228,
          "longitude": 0.1495022,
          "post_code": null,
          "city": "Greater London",
          "route": "Woolwich Road"
        }
      ],
      "providerAddress": {
        "inst_code": "2CG",
        "addr_1": "AET School Direct - Eastern",
        "addr_2": "Academies Enterprise Trust",
        "addr_3": null,
        "addr_4": null,
        "postcode": null,
        "url": "http://www.academiesenterprisetrust.org/our-teaching-school",
        "geocode": true,
        "formatted_address": "183 Eversholt St, Kings Cross, London NW1 1BU, UK",
        "latitude": 51.5320268,
        "longitude": -0.1361007,
        "post_code": "NW1 1BU",
        "city": "Greater London",
        "route": "Eversholt Street",
        "postal_town": "London"
      },
      "options": [
        "QTS, full time with salary"
      ]
    },
    {
      "locationType": "School",
      "accrediting": "University of Hertfordshire",
      "provider": "Parmiters School",
      "subjects": [
        "Geography",
        "Secondary"
      ],
      "name": "Geography",
      "slug": "1D5/2YTD",
      "providerCode": "1D5",
      "programmeCode": "2YTD",
      "schools": [
        {
          "name": "St Clement Danes School",
          "address": "Chenies Road, Chorleywood, WD3 6EW",
          "code": "1"
        }
      ],
      "addresses": [
        {
          "address": "Chenies Road, Chorleywood, WD3 6EW",
          "geocode": true,
          "formatted_address": "Chenies Rd, Chorleywood, Rickmansworth WD3 6EW, UK",
          "latitude": 51.6634022,
          "longitude": -0.5123877000000001,
          "post_code": "WD3 6EW",
          "city": "Chorleywood",
          "route": "Chenies Road",
          "postal_town": "Rickmansworth"
        }
      ],
      "providerAddress": {
        "inst_code": "1D5",
        "addr_1": "Parmiter's School",
        "addr_2": "High Elms Lane",
        "addr_3": "Garston",
        "addr_4": "Watford",
        "postcode": "WD25 0UU",
        "url": "http://www.parmiters.herts.sch.uk",
        "geocode": true,
        "formatted_address": "High Elms Ln, Watford WD25 0UU, UK",
        "latitude": 51.7030548,
        "longitude": -0.3892004,
        "post_code": "WD25 0UU",
        "city": "Hertfordshire",
        "route": "High Elms Lane",
        "postal_town": "Watford"
      },
      "options": [
        "PGCE with QTS, full time"
      ]
    },
    {
      "locationType": "School",
      "accrediting": null,
      "provider": "Billericay Educational Consortium",
      "subjects": [
        "History",
        "Secondary"
      ],
      "name": "History",
      "slug": "B28/2KN8",
      "providerCode": "B28",
      "programmeCode": "2KN8",
      "schools": [
        {
          "name": "Main Site",
          "address": "The Bromfords School, Grange Avenue, Wickford, SS12 0LZ",
          "code": ""
        }
      ],
      "addresses": [
        {
          "address": "The Bromfords School, Grange Avenue, Wickford, SS12 0LZ",
          "geocode": true,
          "formatted_address": "Grange Ave, Wickford SS12 0LZ, UK",
          "latitude": 51.604702,
          "longitude": 0.508668,
          "post_code": "SS12 0LZ",
          "city": "Essex",
          "route": "Grange Avenue",
          "postal_town": "Wickford"
        }
      ],
      "providerAddress": {
        "inst_code": "B28",
        "addr_1": "c/o Bromfords School",
        "addr_2": "Grange Avenue",
        "addr_3": "Wickford",
        "addr_4": "Essex",
        "postcode": "SS12 0LZ",
        "url": "http://www.billericayscitt.com",
        "geocode": true,
        "formatted_address": "Grange Ave, Wickford SS12 0LZ, UK",
        "latitude": 51.604702,
        "longitude": 0.508668,
        "post_code": "SS12 0LZ",
        "city": "Essex",
        "route": "Grange Avenue",
        "postal_town": "Wickford"
      },
      "options": [
        "PGCE with QTS, full time"
      ]
    },
    {
      "locationType": "School",
      "accrediting": "University of East London",
      "provider": "Burnt Mill Academy",
      "subjects": [
        "Physics",
        "Science",
        "Secondary"
      ],
      "name": "Physics",
      "slug": "2GY/35YQ",
      "providerCode": "2GY",
      "programmeCode": "35YQ",
      "schools": [
        {
          "name": "Main Site",
          "address": "First Avenue, Harlow, CM20 2NR",
          "code": "-"
        }
      ],
      "addresses": [
        {
          "address": "First Avenue, Harlow, CM20 2NR",
          "geocode": true,
          "formatted_address": "Harlow CM20 2NR, UK",
          "latitude": 51.7768637,
          "longitude": 0.1080128,
          "post_code": "CM20 2NR",
          "city": "Essex",
          "route": null,
          "postal_town": "Harlow"
        }
      ],
      "providerAddress": {
        "inst_code": "2GY",
        "addr_1": "First Avenue",
        "addr_2": null,
        "addr_3": "Harlow",
        "addr_4": null,
        "postcode": "CM20 2NR",
        "url": null,
        "geocode": true,
        "formatted_address": "First Ave, Harlow CM17 9LR, UK",
        "latitude": 51.7792722,
        "longitude": 0.1300906,
        "post_code": "CM17 9LR",
        "city": "Essex",
        "route": "First Avenue",
        "postal_town": "Harlow"
      },
      "options": [
        "QTS, full time with salary"
      ]
    },
    {
      "locationType": "School",
      "accrediting": "Bishop Grosseteste University",
      "provider": "The St Francis Special School, Lincoln",
      "subjects": [
        "Primary"
      ],
      "name": "Primary",
      "slug": "1LU/2RLY",
      "providerCode": "1LU",
      "programmeCode": "2RLY",
      "schools": [
        {
          "name": "Linconshire Wolds Federation - St Bernards School",
          "address": "Wood Lane, Louth, Lincolnshire, LN11 8RS",
          "code": "B"
        },
        {
          "name": "Sandon School",
          "address": "Sandon Close, Grantham, Lincolnshire, NG31 9AX",
          "code": "K"
        },
        {
          "name": "Ambergate Sports College",
          "address": "Dysart Road, Grantham, Lincolnshire, NG31 7LP",
          "code": "M"
        },
        {
          "name": "St Francis Special School",
          "address": "Wickenby Crescent, Lincoln, Lincolnshire, LN1 3TJ",
          "code": "N"
        },
        {
          "name": "St Christopher's",
          "address": "Hykeham Road, Lincoln, LN6 8AR",
          "code": "R"
        }
      ],
      "addresses": [
        {
          "address": "Wood Lane, Louth, Lincolnshire, LN11 8RS",
          "geocode": true,
          "formatted_address": "Wood Ln, Louth LN11 8RS, UK",
          "latitude": 53.3637256,
          "longitude": 0.0147485,
          "post_code": "LN11 8RS",
          "city": "Lincolnshire",
          "route": "Wood Lane",
          "postal_town": "Louth"
        },
        {
          "address": "Sandon Close, Grantham, Lincolnshire, NG31 9AX",
          "geocode": true,
          "formatted_address": "Sandon Cl, Grantham NG31 9AX, UK",
          "latitude": 52.915335,
          "longitude": -0.6316729,
          "post_code": "NG31 9AX",
          "city": "Lincolnshire",
          "route": "Sandon Close",
          "postal_town": "Grantham"
        },
        {
          "address": "Dysart Road, Grantham, Lincolnshire, NG31 7LP",
          "geocode": true,
          "formatted_address": "Dysart Rd, Grantham NG31 7LP, UK",
          "latitude": 52.9097322,
          "longitude": -0.6657263000000001,
          "post_code": "NG31 7LP",
          "city": "Lincolnshire",
          "route": "Dysart Road",
          "postal_town": "Grantham"
        },
        {
          "address": "Wickenby Crescent, Lincoln, Lincolnshire, LN1 3TJ",
          "geocode": true,
          "formatted_address": "Wickenby Cres, Lincoln LN1 3TJ, UK",
          "latitude": 53.2486909,
          "longitude": -0.5402975,
          "post_code": "LN1 3TJ",
          "city": "Lincolnshire",
          "route": "Wickenby Crescent",
          "postal_town": "Lincoln"
        },
        {
          "address": "Hykeham Road, Lincoln, LN6 8AR",
          "geocode": true,
          "formatted_address": "Hykeham Rd, Lincoln LN6 8AA, UK",
          "latitude": 53.1967684,
          "longitude": -0.5672012,
          "post_code": "LN6 8AA",
          "city": "Lincolnshire",
          "route": "Hykeham Road",
          "postal_town": "Lincoln"
        }
      ],
      "providerAddress": {
        "inst_code": "1LU",
        "addr_1": "Wickenby Crescent",
        "addr_2": "Ermine Estate",
        "addr_3": null,
        "addr_4": "Lincoln",
        "postcode": "LN1 3TJ ",
        "url": "http://schools-online.org/cgi-bin/WebObjects/SchoolWebs.woa/wa/sc",
        "geocode": true,
        "formatted_address": "Wickenby Cres, Lincoln LN1 3TJ, UK",
        "latitude": 53.2479767,
        "longitude": -0.5395883,
        "post_code": "LN1 3TJ",
        "city": "Lincolnshire",
        "route": "Wickenby Crescent",
        "postal_town": "Lincoln"
      },
      "options": [
        "PGCE with QTS, full time"
      ]
    },
    {
      "locationType": "School",
      "accrediting": null,
      "provider": "Wildern Partnership",
      "subjects": [
        "History",
        "Secondary"
      ],
      "name": "History",
      "slug": "1WH/2LSC",
      "providerCode": "1WH",
      "programmeCode": "2LSC",
      "schools": [
        {
          "name": "Main Site",
          "address": "Wildern Lane, Hedge End, Southampton, Hampshire, SO30 4EJ",
          "code": "-"
        }
      ],
      "addresses": [
        {
          "address": "Wildern Lane, Hedge End, Southampton, Hampshire, SO30 4EJ",
          "geocode": true,
          "formatted_address": "Wildern Ln, Hedge End, Southampton SO30 4EJ, UK",
          "latitude": 50.9199426,
          "longitude": -1.3044592,
          "post_code": "SO30 4EJ",
          "city": "Hedge End",
          "route": "Wildern Lane",
          "postal_town": "Southampton"
        }
      ],
      "providerAddress": {
        "inst_code": "1WH",
        "addr_1": "Wildern Lane",
        "addr_2": "Hedge End",
        "addr_3": "Southampton",
        "addr_4": "Hampshire",
        "postcode": "SO30 4EJ",
        "url": "http://www.wildernpartnership.co.uk/",
        "geocode": true,
        "formatted_address": "Wildern Ln, Hedge End, Southampton SO30 4EJ, UK",
        "latitude": 50.9180009,
        "longitude": -1.3031926,
        "post_code": "SO30 4EJ",
        "city": "Hedge End",
        "route": "Wildern Lane",
        "postal_town": "Southampton"
      },
      "options": [
        "PGCE with QTS, full time"
      ]
    },
    {
      "locationType": "School",
      "accrediting": "AA Teamworks West Yorkshire SCITT",
      "provider": "MOSAIC Teacher Training Calderdale",
      "subjects": [
        "Music",
        "Secondary"
      ],
      "name": "Music",
      "slug": "17K/2TWS",
      "providerCode": "17K",
      "programmeCode": "2TWS",
      "schools": [
        {
          "name": "Main Site",
          "address": "The Crossley Heath School, Savile Park, Halifax, HX3 0HG",
          "code": "-"
        }
      ],
      "addresses": [
        {
          "address": "The Crossley Heath School, Savile Park, Halifax, HX3 0HG",
          "geocode": true,
          "formatted_address": "Savile Park, Halifax HX3 0HG, UK",
          "latitude": 53.711639,
          "longitude": -1.87819,
          "post_code": "HX3 0HG",
          "city": "West Yorkshire",
          "route": null,
          "postal_town": "Halifax"
        }
      ],
      "providerAddress": {
        "inst_code": "17K",
        "addr_1": "The Crossley Heath School",
        "addr_2": "Savile Park",
        "addr_3": "Halifax",
        "addr_4": null,
        "postcode": "HX3 0HG ",
        "url": "http://www.crossleyheath.org.uk/mosaic",
        "geocode": true,
        "formatted_address": "Savile Park, Halifax HX3 0HG, UK",
        "latitude": 53.711639,
        "longitude": -1.87819,
        "post_code": "HX3 0HG",
        "city": "West Yorkshire",
        "route": null,
        "postal_town": "Halifax"
      },
      "options": [
        "PGCE with QTS, full time"
      ]
    },
    {
      "locationType": "School",
      "accrediting": null,
      "provider": "Mid Essex Initial Teacher Training",
      "subjects": [
        "Physical education",
        "Secondary"
      ],
      "name": "Physical Education",
      "slug": "M82/38GC",
      "providerCode": "M82",
      "programmeCode": "38GC",
      "schools": [
        {
          "name": "Main Site",
          "address": "Notley High School, Notley Road, Braintree, Essex, CM7 1WY",
          "code": ""
        }
      ],
      "addresses": [
        {
          "address": "Notley High School, Notley Road, Braintree, Essex, CM7 1WY",
          "geocode": true,
          "formatted_address": "Notley Rd, Braintree CM7 1WY, UK",
          "latitude": 51.8656345,
          "longitude": 0.5512235,
          "post_code": "CM7 1WY",
          "city": "Essex",
          "route": "Notley Road",
          "postal_town": "Braintree"
        }
      ],
      "providerAddress": {
        "inst_code": "M82",
        "addr_1": "Notley High School & Braintree Sixt",
        "addr_2": "Notley Road",
        "addr_3": "Braintree",
        "addr_4": "Essex",
        "postcode": "CM7 1WY ",
        "url": "http://www.midessexteachertraining.com",
        "geocode": true,
        "formatted_address": "Notley Rd, Braintree CM7 1WY, UK",
        "latitude": 51.8656345,
        "longitude": 0.5512235,
        "post_code": "CM7 1WY",
        "city": "Essex",
        "route": "Notley Road",
        "postal_town": "Braintree"
      },
      "options": [
        "PGCE with QTS, full time"
      ]
    },
    {
      "locationType": "School",
      "accrediting": "Somerset SCITT Consortium",
      "provider": "Ventrus Teaching School Alliance",
      "subjects": [
        "Primary"
      ],
      "name": "Primary",
      "slug": "2BF/32VP",
      "providerCode": "2BF",
      "programmeCode": "32VP",
      "schools": [
        {
          "name": "Main Site",
          "address": "Bowley Meadow, Townlands, Exeter, Devon, EX5 4RF",
          "code": "-"
        }
      ],
      "addresses": [
        {
          "address": "Bowley Meadow, Townlands, Exeter, Devon, EX5 4RF",
          "geocode": true,
          "formatted_address": "Townlands & Bowley Meadow, Bradninch, Exeter EX5, UK",
          "latitude": 50.8229509,
          "longitude": -3.4277695,
          "post_code": "EX5",
          "city": "Bradninch",
          "route": null,
          "postal_town": "Exeter"
        }
      ],
      "providerAddress": {
        "inst_code": "2BF",
        "addr_1": "Pilton Community College",
        "addr_2": "Chaddiford Lane",
        "addr_3": "Barnstaple",
        "addr_4": "Devon",
        "postcode": "EX31 1RD",
        "url": "http://www.ventrustsa.org.uk",
        "geocode": true,
        "formatted_address": "Chaddiford Ln, Barnstaple EX31 1RB, UK",
        "latitude": 51.08802360000001,
        "longitude": -4.0698189,
        "post_code": "EX31 1RB",
        "city": "Devon",
        "route": "Chaddiford Ln",
        "postal_town": "Barnstaple"
      },
      "options": [
        "QTS, full time"
      ]
    },
    {
      "locationType": "School",
      "accrediting": "Nottingham Trent University",
      "provider": "Leicestershire Learning Alliance",
      "subjects": [
        "Religious education",
        "Secondary"
      ],
      "name": "Religious Education",
      "slug": "27P/35BY",
      "providerCode": "27P",
      "programmeCode": "35BY",
      "schools": [
        {
          "name": "Main Site",
          "address": "Melton Road, Leicester, LE4 8GQ",
          "code": "-"
        }
      ],
      "addresses": [
        {
          "address": "Melton Road, Leicester, LE4 8GQ",
          "geocode": true,
          "formatted_address": "Melton Rd, Thurmaston, Leicester LE4 8GQ, UK",
          "latitude": 52.68651300000001,
          "longitude": -1.0928418,
          "post_code": "LE4 8GQ",
          "city": "Thurmaston",
          "route": "Melton Road",
          "postal_town": "Leicester"
        }
      ],
      "providerAddress": {
        "inst_code": "27P",
        "addr_1": "997 Melton Road",
        "addr_2": "Thurmaston",
        "addr_3": "Leicester",
        "addr_4": null,
        "postcode": "LE4 8GQ ",
        "url": null,
        "geocode": true,
        "formatted_address": "997 Melton Rd, Thurmaston, Leicester LE4 8GQ, UK",
        "latitude": 52.6881223,
        "longitude": -1.092191,
        "post_code": "LE4 8GQ",
        "city": "Thurmaston",
        "route": "Melton Road",
        "postal_town": "Leicester"
      },
      "options": [
        "QTS, full time"
      ]
    },
    {
      "locationType": "School",
      "accrediting": null,
      "provider": "Sutton Park SCITT",
      "subjects": [
        "Music",
        "Secondary"
      ],
      "name": "Music",
      "slug": "25D/2LV4",
      "providerCode": "25D",
      "programmeCode": "2LV4",
      "schools": [
        {
          "name": "Main Site",
          "address": "Queslett Road East, Sutton Coldfield, West Midlands, B74 2EX",
          "code": "-"
        }
      ],
      "addresses": [
        {
          "address": "Queslett Road East, Sutton Coldfield, West Midlands, B74 2EX",
          "geocode": true,
          "formatted_address": "Queslett Rd E, Sutton Coldfield B74 2EX, UK",
          "latitude": 52.5679816,
          "longitude": -1.8818706,
          "post_code": "B74 2EX",
          "city": "West Midlands",
          "route": "Queslett Road East",
          "postal_town": "Sutton Coldfield"
        }
      ],
      "providerAddress": {
        "inst_code": "25D",
        "addr_1": "Queslett Road East",
        "addr_2": null,
        "addr_3": "Sutton Coldfield",
        "addr_4": "West Midlands",
        "postcode": "B74 2EX ",
        "url": "http://suttonpark-scitt.weebly.com/",
        "geocode": true,
        "formatted_address": "Queslett Rd E, United Kingdom",
        "latitude": 52.565042,
        "longitude": -1.8865084,
        "post_code": null,
        "city": "West Midlands",
        "route": "Queslett Road East"
      },
      "options": [
        "QTS, full time"
      ]
    },
    {
      "locationType": "School",
      "accrediting": null,
      "provider": "Doncaster ITT Partnership",
      "subjects": [
        "Primary"
      ],
      "name": "Primary",
      "slug": "D51/X105",
      "providerCode": "D51",
      "programmeCode": "X105",
      "schools": [
        {
          "name": "Main Site",
          "address": "Civic Office, Waterdale, Doncaster, DN1 3BU",
          "code": "-"
        }
      ],
      "addresses": [
        {
          "address": "Civic Office, Waterdale, Doncaster, DN1 3BU",
          "geocode": true,
          "formatted_address": "Civic Office, Waterdale, Doncaster DN1 3BU, UK",
          "latitude": 53.5205744,
          "longitude": -1.1305708,
          "post_code": "DN1 3BU",
          "city": "South Yorkshire",
          "route": "Waterdale",
          "postal_town": "Doncaster"
        }
      ],
      "providerAddress": {
        "inst_code": "D51",
        "addr_1": "Doncaster Council",
        "addr_2": "Civic Office",
        "addr_3": "Waterdale",
        "addr_4": "Doncaster",
        "postcode": "DN1 3BU ",
        "url": "http://www.doncasteritt.co.uk",
        "geocode": true,
        "formatted_address": "Civic Office, Waterdale, Doncaster DN1 3BU, UK",
        "latitude": 53.52051789999999,
        "longitude": -1.1308092,
        "post_code": "DN1 3BU",
        "city": "South Yorkshire",
        "route": "Waterdale",
        "postal_town": "Doncaster"
      },
      "options": [
        "QTS, full time"
      ]
    },
    {
      "locationType": "School",
      "accrediting": "The University of Sheffield",
      "provider": "Mercia Learning Alliance",
      "subjects": [
        "French",
        "German",
        "Languages",
        "Languages (european)",
        "Secondary",
        "Spanish"
      ],
      "name": "Modern Languages (French, German, Spanish)",
      "slug": "13C/35MY",
      "providerCode": "13C",
      "programmeCode": "35MY",
      "schools": [
        {
          "name": "Main Site",
          "address": "Totley Brook Road, Sheffield, S17 3QU",
          "code": "-"
        }
      ],
      "addresses": [
        {
          "address": "Totley Brook Road, Sheffield, S17 3QU",
          "geocode": true,
          "formatted_address": "Totley Brook Rd, Sheffield S17 3QU, UK",
          "latitude": 53.3184034,
          "longitude": -1.5365961,
          "post_code": "S17 3QU",
          "city": "South Yorkshire",
          "route": "Totley Brook Road",
          "postal_town": "Sheffield"
        }
      ],
      "providerAddress": {
        "inst_code": "13C",
        "addr_1": "King Ecgbert School",
        "addr_2": "Totley Brook Road",
        "addr_3": null,
        "addr_4": "Sheffield",
        "postcode": "S17 3QU ",
        "url": "http://www.ecgbert.sheffield.sch.uk/",
        "geocode": true,
        "formatted_address": "Totley Brook Road, Dore, Sheffield S17 3QU, United Kingdom",
        "latitude": 53.32024699999999,
        "longitude": -1.5371847,
        "post_code": "S17 3QU",
        "city": null,
        "route": null,
        "postal_town": "Sheffield"
      },
      "options": [
        "PGCE with QTS, full time"
      ]
    },
    {
      "locationType": "School",
      "accrediting": "The Cambridge Partnership",
      "provider": "Springwood High School",
      "subjects": [
        "Geography",
        "Secondary"
      ],
      "name": "Geography",
      "slug": "1U4/24LH",
      "providerCode": "1U4",
      "programmeCode": "24LH",
      "schools": [
        {
          "name": "The Basildon Academies",
          "address": "Wickford Avenue, Pitsea, Basildon, Essex, SS13 3HL",
          "code": "1"
        }
      ],
      "addresses": [
        {
          "address": "Wickford Avenue, Pitsea, Basildon, Essex, SS13 3HL",
          "geocode": true,
          "formatted_address": "Wickford Ave, Basildon SS13 3HA, UK",
          "latitude": 51.5682272,
          "longitude": 0.5032325,
          "post_code": "SS13 3HA",
          "city": "Essex",
          "route": "Wickford Avenue",
          "postal_town": "Basildon"
        }
      ],
      "providerAddress": {
        "inst_code": "1U4",
        "addr_1": "Springwood High School",
        "addr_2": "Queensway",
        "addr_3": "Gaywood",
        "addr_4": "King's Lynn",
        "postcode": "PE30 4AW",
        "url": null,
        "geocode": true,
        "formatted_address": "Queensway, King's Lynn PE30 4AW, UK",
        "latitude": 52.7597511,
        "longitude": 0.4337293,
        "post_code": "PE30 4AW",
        "city": "Norfolk",
        "route": "Queensway",
        "postal_town": "King's Lynn"
      },
      "options": [
        "QTS, full time with salary"
      ]
    },
    {
      "locationType": "School",
      "accrediting": "University of Hertfordshire",
      "provider": "East Herts Partnership",
      "subjects": [
        "Primary"
      ],
      "name": "Primary",
      "slug": "1VT/2XH4",
      "providerCode": "1VT",
      "programmeCode": "2XH4",
      "schools": [
        {
          "name": "Goffs Oak Primary",
          "address": "Millcrest Road, Goffs Oak, EN7 5NS",
          "code": "G"
        }
      ],
      "addresses": [
        {
          "address": "Millcrest Road, Goffs Oak, EN7 5NS",
          "geocode": true,
          "formatted_address": "Millcrest Rd, Goff's Oak, Waltham Cross EN7 5NU, UK",
          "latitude": 51.71396980000001,
          "longitude": -0.09379789999999999,
          "post_code": "EN7 5NU",
          "city": "Goff's Oak",
          "route": "Millcrest Road",
          "postal_town": "Waltham Cross"
        }
      ],
      "providerAddress": {
        "inst_code": "1VT",
        "addr_1": "Goffs Lane",
        "addr_2": "Cheshunt",
        "addr_3": null,
        "addr_4": "Waltham Cross",
        "postcode": "EN7 5QW ",
        "url": "http://teachineastherts.wordpress.com/",
        "geocode": true,
        "formatted_address": "Goff's Ln, Goff's Oak, Waltham Cross EN7 5QL, UK",
        "latitude": 51.7064086,
        "longitude": -0.0687649,
        "post_code": "EN7 5QL",
        "city": "Goff's Oak",
        "route": "Goff's Lane",
        "postal_town": "Waltham Cross"
      },
      "options": [
        "QTS, full time with salary"
      ]
    },
    {
      "locationType": "School",
      "accrediting": "Suffolk and Norfolk Secondary SCITT",
      "provider": "Claydon High School",
      "subjects": [
        "Languages",
        "Secondary"
      ],
      "name": "Modern Languages",
      "slug": "2GU/368N",
      "providerCode": "2GU",
      "programmeCode": "368N",
      "schools": [
        {
          "name": "Main Site",
          "address": "Church Lane, Claydon, Ipswich, Suffolk, IP6 0EG",
          "code": "-"
        }
      ],
      "addresses": [
        {
          "address": "Church Lane, Claydon, Ipswich, Suffolk, IP6 0EG",
          "geocode": true,
          "formatted_address": "Claydon, Ipswich IP6 0EG, UK",
          "latitude": 52.1064306,
          "longitude": 1.115769,
          "post_code": "IP6 0EG",
          "city": "Claydon",
          "route": null,
          "postal_town": "Ipswich"
        }
      ],
      "providerAddress": {
        "inst_code": "2GU",
        "addr_1": "Claydon High School",
        "addr_2": "Church Lane, Claydon",
        "addr_3": "Ipswich",
        "addr_4": "Suffolk",
        "postcode": "IP6 0EG ",
        "url": null,
        "geocode": true,
        "formatted_address": "Church Ln, Claydon, Ipswich IP6 0EG, UK",
        "latitude": 52.1064061,
        "longitude": 1.1157683,
        "post_code": "IP6 0EG",
        "city": "Claydon",
        "route": "Church Lane",
        "postal_town": "Ipswich"
      },
      "options": [
        "PGCE with QTS, full time"
      ]
    },
    {
      "locationType": "School",
      "accrediting": "University of East Anglia",
      "provider": "Ignite Teaching School Alliance",
      "subjects": [
        "Physical education",
        "Secondary"
      ],
      "name": "Physical Education",
      "slug": "18Z/2Q2W",
      "providerCode": "18Z",
      "programmeCode": "2Q2W",
      "schools": [
        {
          "name": "Ignite Teaching School",
          "address": "Ormiston Venture Academy, Gorleston, Norfolk, NR31 7JJ",
          "code": "S"
        }
      ],
      "addresses": [
        {
          "address": "Ormiston Venture Academy, Gorleston, Norfolk, NR31 7JJ",
          "geocode": true,
          "formatted_address": "Oriel Ave, Gorleston-on-Sea, Great Yarmouth NR31 7JJ, UK",
          "latitude": 52.57046219999999,
          "longitude": 1.7071533,
          "post_code": "NR31 7JJ",
          "city": "Gorleston-on-Sea",
          "route": "Oriel Avenue",
          "postal_town": "Great Yarmouth"
        }
      ],
      "providerAddress": {
        "inst_code": "18Z",
        "addr_1": "Ormiston Venture Academy",
        "addr_2": null,
        "addr_3": null,
        "addr_4": "Gorleston",
        "postcode": "NR31 7JJ",
        "url": "http://www.ormistonventureacademy.co.uk",
        "geocode": true,
        "formatted_address": "Oriel Ave, Gorleston-on-Sea, Great Yarmouth NR31 7JJ, UK",
        "latitude": 52.57046219999999,
        "longitude": 1.7071533,
        "post_code": "NR31 7JJ",
        "city": "Gorleston-on-Sea",
        "route": "Oriel Avenue",
        "postal_town": "Great Yarmouth"
      },
      "options": [
        "PGCE with QTS, full time"
      ]
    },
    {
      "locationType": "School",
      "accrediting": "Canterbury Christ Church University",
      "provider": "East Kent Learning Alliance",
      "subjects": [
        "Chemistry",
        "Science",
        "Secondary"
      ],
      "name": "Chemistry - Dane Court Grammar School",
      "slug": "2DG/34Y6",
      "providerCode": "2DG",
      "programmeCode": "34Y6",
      "schools": [
        {
          "name": "Dane Court Grammar School",
          "address": "Broadstairs Road, Broadstairs, Kent, CT10 2RT",
          "code": "4"
        }
      ],
      "addresses": [
        {
          "address": "Broadstairs Road, Broadstairs, Kent, CT10 2RT",
          "geocode": true,
          "formatted_address": "Broadstairs Rd, Broadstairs CT10 2RT, UK",
          "latitude": 51.361501,
          "longitude": 1.4187291,
          "post_code": "CT10 2RT",
          "city": "Kent",
          "route": "Broadstairs Road",
          "postal_town": "Broadstairs"
        }
      ],
      "providerAddress": {
        "inst_code": "2DG",
        "addr_1": "Canterbury Road",
        "addr_2": "Birchington",
        "addr_3": "Kent",
        "addr_4": "(Thanet, HerneBay, Whitstable Deal)",
        "postcode": null,
        "url": null,
        "geocode": true,
        "formatted_address": "Canterbury Rd, Birchington CT7 9UB, UK",
        "latitude": 51.37168279999999,
        "longitude": 1.30348,
        "post_code": "CT7 9UB",
        "city": "Kent",
        "route": "Canterbury Road",
        "postal_town": "Birchington"
      },
      "options": [
        "QTS, full time"
      ]
    },
    {
      "locationType": "School",
      "accrediting": "The University of Reading",
      "provider": "Calthorpe Park Fleet",
      "subjects": [
        "Physics",
        "Secondary"
      ],
      "name": "Physics",
      "slug": "1UH/3568",
      "providerCode": "1UH",
      "programmeCode": "3568",
      "schools": [
        {
          "name": "Frogmore Community College",
          "address": "Potley Hill Road, Yateley, Hants, GU46 6AG",
          "code": "F"
        }
      ],
      "addresses": [
        {
          "address": "Potley Hill Road, Yateley, Hants, GU46 6AG",
          "geocode": true,
          "formatted_address": "Potley Hill Rd, Yateley GU46 6AG, UK",
          "latitude": 51.3365383,
          "longitude": -0.8101024,
          "post_code": "GU46 6AG",
          "city": "Hampshire",
          "route": "Potley Hill Road",
          "postal_town": "Yateley"
        }
      ],
      "providerAddress": {
        "inst_code": "1UH",
        "addr_1": "Hitches Lane",
        "addr_2": null,
        "addr_3": "Fleet",
        "addr_4": "Hampshire",
        "postcode": "GU51 5JA",
        "url": "http://www.calthorpepark.hants.sch.uk",
        "geocode": true,
        "formatted_address": "Hitches Ln, Crookham Village, Fleet GU51 5SW, UK",
        "latitude": 51.2775634,
        "longitude": -0.8636345,
        "post_code": "GU51 5SW",
        "city": "Crookham Village",
        "route": "Hitches Lane",
        "postal_town": "Fleet"
      },
      "options": [
        "QTS, full time"
      ]
    },
    {
      "locationType": "School",
      "accrediting": "University of Bedfordshire",
      "provider": "MCA Partnership",
      "subjects": [
        "Drama and theatre studies",
        "Secondary"
      ],
      "name": "Drama",
      "slug": "2CZ/2ZHF",
      "providerCode": "2CZ",
      "programmeCode": "2ZHF",
      "schools": [
        {
          "name": "Main Site",
          "address": "Bury Road, Mildenhall, Bury St Edmunds, IP28 7HT",
          "code": "-"
        }
      ],
      "addresses": [
        {
          "address": "Bury Road, Mildenhall, Bury St Edmunds, IP28 7HT",
          "geocode": true,
          "formatted_address": "Bury Rd, Mildenhall, Bury Saint Edmunds IP28 7HT, UK",
          "latitude": 52.3435089,
          "longitude": 0.5258208,
          "post_code": "IP28 7HT",
          "city": "Mildenhall",
          "route": "Bury Road",
          "postal_town": "Bury Saint Edmunds"
        }
      ],
      "providerAddress": {
        "inst_code": "2CZ",
        "addr_1": "Bury Road",
        "addr_2": "Mildenhall",
        "addr_3": null,
        "addr_4": "Bury St Edmunds",
        "postcode": "IP28 7HT",
        "url": "http://www.mildenhall.attrust.org.uk",
        "geocode": true,
        "formatted_address": "Bury Rd, Barrow, Bury Saint Edmunds IP29 5DE, UK",
        "latitude": 52.2442366,
        "longitude": 0.593399,
        "post_code": "IP29 5DE",
        "city": "Barrow",
        "route": "Bury Road",
        "postal_town": "Bury Saint Edmunds"
      },
      "options": [
        "PGCE with QTS, full time"
      ]
    }
  ]
}
