{
  "locationType": "School",
  "accrediting": "University of Exeter",
  "provider": "TADSS ITT Partnership",
  "subjects": [
    "Primary"
  ],
  "name": "Primary",
  "financial_support": "Student finance if youâ€™re eligible",
  "slug": "26E/2P2F",
  "providerCode": "26E",
  "programmeCode": "2P2F",
  "schools": [
    {
      "name": "Main Site",
      "address": "Littlemoor Road, Preston, Weymouth, DT3 6AA",
      "code": "-"
    },
    {
      "name": "WEYMOUTH AREA",
      "address": "Weymouth, Dorset",
      "code": "B"
    },
    {
      "name": "DORCHESTER AREA",
      "address": "Dorchester, Dorset",
      "code": "D"
    },
    {
      "name": "BRIDPORT AREA",
      "address": "Bridport, Dorset",
      "code": "M"
    },
    {
      "name": "STURMINSTER NEWTON AREA",
      "address": "Dorset",
      "code": "N"
    },
    {
      "name": "WIMBORNE AREA",
      "address": "Wimborne, Dorset",
      "code": "W"
    }
  ],
  "addresses": [
    {
      "address": "Littlemoor Road, Preston, Weymouth, DT3 6AA",
      "geocode": true,
      "formatted_address": "Littlemoor Rd, Weymouth DT3 6AA, UK",
      "latitude": 50.6448908,
      "longitude": -2.4353997,
      "post_code": "DT3 6AA",
      "city": "Dorset",
      "route": "Littlemoor Road",
      "postal_town": "Weymouth"
    },
    {
      "address": "Weymouth, Dorset",
      "geocode": true,
      "formatted_address": "Weymouth, UK",
      "latitude": 50.6144279,
      "longitude": -2.457621,
      "post_code": null,
      "city": "Weymouth",
      "route": null
    },
    {
      "address": "Dorchester, Dorset",
      "geocode": true,
      "formatted_address": "Dorchester, UK",
      "latitude": 50.7111639,
      "longitude": -2.441181,
      "post_code": null,
      "city": "Dorchester",
      "route": null,
      "postal_town": "Dorchester"
    },
    {
      "address": "Bridport, Dorset",
      "geocode": true,
      "formatted_address": "Bridport DT6, UK",
      "latitude": 50.7335769,
      "longitude": -2.758301,
      "post_code": "DT6",
      "city": "Bridport",
      "route": null,
      "postal_town": "Bridport"
    },
    {
      "address": "Dorset",
      "geocode": true,
      "formatted_address": "Dorset, UK",
      "latitude": 50.7487635,
      "longitude": -2.3444786,
      "post_code": null,
      "city": "Dorset",
      "route": null
    },
    {
      "address": "Wimborne, Dorset",
      "geocode": true,
      "formatted_address": "Wimborne Minster, Wimborne BH21, UK",
      "latitude": 50.8004646,
      "longitude": -1.9830004,
      "post_code": "BH21",
      "city": "Wimborne Minster",
      "route": null,
      "postal_town": "Wimborne"
    }
  ],
  "providerAddress": {
    "inst_code": "26E",
    "addr_1": "TADSS ITT Partnership (Westfield)",
    "addr_2": "Littlemoor Road, Preston",
    "addr_3": "Weymouth",
    "addr_4": "Dorset",
    "postcode": "DT3 6AA ",
    "url": "http://tadss.co.uk/initial-teacher-training/",
    "geocode": true,
    "formatted_address": "Littlemoor Rd, Weymouth DT3 6AA, UK",
    "latitude": 50.6458024,
    "longitude": -2.4383321,
    "post_code": "DT3 6AA",
    "city": "Dorset",
    "route": "Littlemoor Road",
    "postal_town": "Weymouth"
  },
  "options": [
    "PGCE with QTS, full time"
  ],
  "enrichment": {
    "FeeUkEu": 9250.0,
    "CourseLength": "OneYear",
    "FinancialSupport": "TADSS trainees are eligible for bursaries and student loans\\r\n[Read more at ](http://www.exeter.ac.uk/students/finance/studentfunding/fundingforpgcestudents/)",
    "InterviewProcess": "If an applicant is invited to attend one of our assessment days, they will be notified by email and letter with details of the assessment process. \\r\n Usually, the assessment sessions are held in one of our partner schools.  \\r\n\\r\nThere are 3 elements to the assessment day:\\r\n\\r\n* plan and deliver a short activity with a group of children (usually 6 - 8 pupils of mixed ability)\\r\n* a reflective written activity on an aspect of teaching and learning\\r\n* an interview with a representative from TADSS and the head teacher of the hosting school\\r\n\\r\nThe offer of a place is made to the applicant through UCAS by the University of Exeter.  Places are often conditional as some applicants may be completing degrees or relevant qualifications.  Also, all applicants must pass the professional skills tests, complete a confidential medical questionnaire to ensure they are fit to teach and that Disclosure and Barring Services checks have been made.  "
  },
  "has_enrichment": true,
  "inst": {
    "TrainWithUs": "TADSS ITT Partnership is a group of nearly forty first, primary and special schools across Dorset.  We have a 100% completion success rate and all 2018/19 trainees are employed in Dorset schools.\\r\n\\r\nOur teacher training programme combines:\\r\n\\r\n* school based practice and reflection\\r\n* academic on-line learning\\r\n* face to face training events.  \\r\n\\r\nOur wide partnership gives opportunities to gain experience in coastal, rural or urban school settings, with trainees predominately placed within thirty minutes of home.  Trainees can express a preference for placements in both mainstream and special schools. \\r\n\\r\nWe offer places for Primary phase teacher training in Dorset through the School Direct route into teaching.  This means our trainees are mainly school based during their training year.   The intensive and immersive classroom experience helps to build teaching skills, supported by an experienced classroom teacher and in-school mentor. \\r\n\\r\nAlongside the practical experience, our trainees regularly come together for our taught programme:\\r\n\\r\n* An intensive 15 day programme, covering all aspects of the curriculum and teaching \\r\n* A strong emphasis on understanding special educational needs and positive behaviour management\\r\n* Designed and led by outstanding school practitioners, giving trainee teachers practical training and advice based on classroom experience\\r\n\\r\nIn addition, our trainees are students of the University of Exeter who award Qualified Teacher Status and the Post Graduate Certificate of Education to trainees on successful completion of the training year.  Trainees are allocated a day each week for their academic studies with the university, studying at home or in school.",
    "TrainWithDisability": "We work with with trainee as an individual in order to ensure they can access the programme and are effectively supported in school, whatever their needs.  The trainees progress in school at their own pace.  \\r\n\\r\nAcademically, support is available from teh unvirsity through their wellbeing service.  Further details can be found using this link (https://www.exeter.ac.uk/wellbeing/accessability/)",
    "AccreditingProviderEnrichments": [
      {
        "Description": "We partner with the University of Exeter to provide the School Direct fee paying distance learning programme.  The university's teacher training provision was inspected by OFSTED in 2017 and was again judged an  Outstanding Provider. \\r\n\\r\nOur trainees go to the university campus in Exeter for 1 day to familiarise themselves with the model of training and the online learning tool they will use for their academic study.  Each term, they are visited in school  by their Exeter tutor. \\r\n\\r\n[University of Exeter website](https://www.exeter.ac.uk/teachertraining/schooldirect/)",
        "UcasInstitutionCode": "E84"
      }
    ]
  },
  "has_inst": true
}
